Year,Origin,Name,City,Country,Longitude,Latitude,ArrDelay_mean,ArrDelay_max,ArrDelay_cum,ArrDelay_count,DepDelay_mean,DepDelay_max,DepDelay_cum,DepDelay_count
1987,ABE,Lehigh Valley Intl,Allentown,United States,-75.440806,40.652083,5.01,245.0,6298.0,1258.0,3.3,254.0,4157.0,1258.0
1987,ABQ,Albuquerque International Sunport,Albuquerque,United States,-106.6091944,35.0402222,8.52,426.0,66986.0,7866.0,7.94,402.0,62437.0,7866.0
1987,ACV,Arcata,Arcata CA,United States,-124.108611,40.978111,23.67,190.0,8119.0,343.0,19.14,178.0,6566.0,343.0
1987,AGS,Augusta Rgnl At Bush Fld,Bush Field,United States,-81.9645,33.369944,7.38,106.0,6363.0,862.0,4.44,1385.0,3831.0,862.0
1987,ALB,Albany Intl,Albany,United States,-73.801692,42.748267,8.35,393.0,24385.0,2922.0,6.95,417.0,20305.0,2922.0
1987,ALO,Waterloo Regional Airport,Waterloo,United States,-92.4003,42.5571,4.4,91.0,1567.0,356.0,3.32,71.0,1182.0,356.0
1987,AMA,Rick Husband Amarillo Intl,Amarillo,United States,-101.705931,35.219369,5.66,323.0,11024.0,1947.0,6.83,322.0,13302.0,1947.0
1987,ANC,Ted Stevens Anchorage Intl,Anchorage,United States,-149.996361,61.174361,12.55,303.0,40389.0,3217.0,11.31,1392.0,36380.0,3217.0
1987,APF,Naples Muni,Naples,United States,-81.775294,26.152619,0.3,39.0,79.0,261.0,1.0,44.0,261.0,261.0
1987,ATL,Hartsfield Jackson Atlanta Intl,Atlanta,United States,-84.428067,33.636719,9.17,421.0,608198.0,66309.0,6.65,1320.0,440680.0,66309.0
1987,ATW,Appleton,Appleton,United States,-88.507576,44.257526,3.54,88.0,1542.0,436.0,1.78,85.0,774.0,436.0
1987,AUS,Austin Bergstrom Intl,Austin,United States,-97.669889,30.194528,5.51,470.0,39715.0,7206.0,5.94,372.0,42778.0,7206.0
1987,AVL,Asheville Regional Airport,Asheville,United States,-82.541806,35.436194,5.27,100.0,2880.0,546.0,4.44,93.0,2423.0,546.0
1987,AVP,Wilkes Barre Scranton Intl,Scranton,United States,-75.723403,41.338478,6.62,239.0,3606.0,545.0,4.0,232.0,2182.0,545.0
1987,AZO,Kalamazoo,Kalamazoo,United States,-85.552058,42.234875,3.72,121.0,3708.0,997.0,2.0,113.0,1997.0,997.0
1987,BDL,Bradley Intl,Windsor Locks,United States,-72.683222,41.938889,8.29,288.0,63617.0,7676.0,5.64,659.0,43297.0,7676.0
1987,BET,Bethel,Bethel,United States,-161.838,60.779778,14.73,545.0,1930.0,131.0,10.63,538.0,1393.0,131.0
1987,BFL,Meadows Fld,Bakersfield,United States,-119.05677,35.433598,7.79,399.0,4739.0,608.0,8.08,406.0,4910.0,608.0
1987,BGM,Greater Binghamton Edwin A Link Fld,Binghamton,United States,-75.979839,42.208689,4.52,91.0,2462.0,545.0,2.88,81.0,1570.0,545.0
1987,BGR,Bangor Intl,Bangor,United States,-68.828139,44.807444,8.75,178.0,4692.0,536.0,4.38,157.0,2348.0,536.0
1987,BHM,Birmingham Intl,Birmingham,United States,-86.75355,33.562942,5.29,217.0,24446.0,4625.0,3.75,233.0,17332.0,4625.0
1987,BIL,Billings Logan International Airport,Billings,United States,-108.537654,45.80921,5.31,320.0,9420.0,1775.0,6.93,320.0,12307.0,1775.0
1987,BIS,Bismarck Municipal Airport,Bismarck,United States,-100.757931,46.775842,6.27,324.0,7130.0,1138.0,5.9,333.0,6715.0,1138.0
1987,BLI,Bellingham Intl,Bellingham,United States,-122.537528,48.792694,8.62,103.0,2173.0,252.0,8.23,115.0,2073.0,252.0
1987,BNA,Nashville Intl,Nashville,United States,-86.678194,36.124472,4.71,237.0,63079.0,13398.0,4.92,1271.0,65984.0,13398.0
1987,BOI,Boise Air Terminal,Boise,United States,-116.222861,43.564361,10.97,292.0,16393.0,1495.0,8.28,275.0,12383.0,1495.0
1987,BOS,General Edward Lawrence Logan Intl,Boston,United States,-71.005181,42.364347,11.47,517.0,289699.0,25250.0,9.49,484.0,239604.0,25250.0
1987,BTM,Bert Mooney Airport,Butte,United States,-112.497472,45.954806,8.32,261.0,1490.0,179.0,3.89,245.0,697.0,179.0
1987,BTR,Baton Rouge Metro Ryan Fld,Baton Rouge,United States,-91.149639,30.533167,8.4,292.0,19063.0,2269.0,5.94,293.0,13482.0,2269.0
1987,BTV,Burlington Intl,Burlington,United States,-73.153278,44.471861,9.39,327.0,14849.0,1581.0,5.75,305.0,9096.0,1581.0
1987,BUF,Buffalo Niagara Intl,Buffalo,United States,-78.732167,42.940525,6.66,541.0,46265.0,6948.0,5.11,570.0,35475.0,6948.0
1987,BUR,Bob Hope,Burbank,United States,-118.358667,34.200667,12.27,368.0,80356.0,6548.0,8.65,468.0,56639.0,6548.0
1987,BWI,Baltimore Washington Intl,Baltimore,United States,-76.668333,39.175361,10.57,381.0,171651.0,16242.0,8.02,385.0,130191.0,16242.0
1987,BZN,Gallatin Field,Bozeman,United States,-111.160151,45.777643,7.11,400.0,6813.0,958.0,6.89,407.0,6604.0,958.0
1987,CAE,Columbia Metropolitan,Columbia,United States,-81.119528,33.938833,4.02,266.0,12301.0,3058.0,2.66,269.0,8128.0,3058.0
1987,CAK,Akron Canton Regional Airport,Akron,United States,-81.4421944,40.9160833,4.91,292.0,6388.0,1302.0,3.47,290.0,4517.0,1302.0
1987,CCR,Buchanan Field Airport,Concord,United States,-122.0568889,37.9896667,11.21,769.0,4193.0,374.0,7.03,133.0,2630.0,374.0
1987,CDV,Merle K Mudhole Smith,Cordova,United States,-145.477556,60.491778,5.1,160.0,745.0,146.0,4.83,160.0,705.0,146.0
1987,CHA,Lovell Fld,Chattanooga,United States,-85.203808,35.035278,5.44,142.0,7066.0,1299.0,2.01,133.0,2607.0,1299.0
1987,CHO,Charlottesville-Albemarle,Charlottesville VA,United States,-78.452861,38.138639,7.41,124.0,3156.0,426.0,5.77,324.0,2456.0,426.0
1987,CHS,Charleston Afb Intl,Charleston,United States,-80.040528,32.898647,4.27,238.0,15802.0,3705.0,3.58,1395.0,13255.0,3705.0
1987,CID,Cedar Rapids,Cedar Rapids,United States,-91.710806,41.884694,7.73,252.0,11717.0,1515.0,5.71,260.0,8646.0,1515.0
1987,CLE,Cleveland Hopkins Intl,Cleveland,United States,-81.849794,41.411689,6.88,751.0,94228.0,13691.0,5.61,720.0,76741.0,13691.0
1987,CLT,Charlotte Douglas Intl,Charlotte,United States,-80.943139,35.214,12.34,294.0,302562.0,24518.0,11.0,1414.0,269691.0,24518.0
1987,CMH,Port Columbus Intl,Columbus,United States,-82.891889,39.997972,8.96,608.0,60815.0,6788.0,6.07,588.0,41224.0,6788.0
1987,CMI,Champaign,Champaign,United States,-88.278056,40.03925,5.84,128.0,3662.0,627.0,3.73,125.0,2338.0,627.0
1987,COS,City Of Colorado Springs Muni,Colorado Springs,United States,-104.700778,38.805805,7.91,563.0,17819.0,2252.0,7.03,530.0,15835.0,2252.0
1987,CPR,Natrona Co Intl,Casper,United States,-106.464417,42.908,7.0,353.0,4421.0,632.0,5.82,291.0,3679.0,632.0
1987,CRP,Corpus Christi Intl,Corpus Christi,United States,-97.501222,27.770361,3.62,137.0,4592.0,1270.0,3.89,139.0,4941.0,1270.0
1987,CRW,Yeager,Charleston,United States,-81.593189,38.373147,7.79,295.0,10380.0,1332.0,6.67,284.0,8891.0,1332.0
1987,CSG,Columbus Metropolitan Airport,Columbus,United States,-84.9388611,32.5163333,8.44,50.0,2759.0,327.0,2.02,50.0,661.0,327.0
1987,CVG,Cincinnati Northern Kentucky Intl,Cincinnati,United States,-84.667822,39.048836,13.33,243.0,206436.0,15483.0,6.62,241.0,102481.0,15483.0
1987,CWA,Central Wisconsin,Wassau,United States,-89.646635,44.772726,7.92,109.0,3459.0,437.0,4.51,95.0,1971.0,437.0
1987,DAB,Daytona Beach Intl,Daytona Beach,United States,-81.058056,29.179917,6.46,144.0,10066.0,1557.0,3.79,256.0,5907.0,1557.0
1987,DAL,Dallas Love Fld,Dallas,United States,-96.851778,32.847111,2.66,213.0,23828.0,8962.0,5.32,205.0,47701.0,8962.0
1987,DAY,James M Cox Dayton Intl,Dayton,United States,-84.219375,39.902375,11.69,288.0,108271.0,9259.0,8.9,294.0,82444.0,9259.0
1987,DCA,Ronald Reagan Washington Natl,Washington,United States,-77.037722,38.852083,7.81,414.0,172041.0,22016.0,5.67,1380.0,124898.0,22016.0
1987,DEN,Denver Intl,Denver,United States,-104.673178,39.861656,10.92,800.0,473853.0,43376.0,14.12,800.0,612654.0,43376.0
1987,DFW,Dallas Fort Worth Intl,Dallas-Fort Worth,United States,-97.037997,32.896828,9.75,520.0,505833.0,51860.0,8.58,1380.0,444845.0,51860.0
1987,DLH,Duluth Intl,Duluth,United States,-92.193649,46.842091,9.74,148.0,3498.0,359.0,4.57,147.0,1640.0,359.0
1987,DRO,Durango La Plata Co,Durango,United States,-107.75377,37.151516,7.37,104.0,1267.0,172.0,5.9,139.0,1014.0,172.0
1987,DSM,Des Moines Intl,Des Moines,United States,-93.663083,41.533972,7.94,367.0,28465.0,3587.0,6.54,339.0,23455.0,3587.0
1987,DTW,Detroit Metro Wayne Co,Detroit,United States,-83.353389,42.212444,11.26,546.0,310199.0,27548.0,7.96,550.0,219227.0,27548.0
1987,EAU,Chippewa Valley Regional Airport,Eau Claire,United States,-91.4843,44.8658,4.43,161.0,1422.0,321.0,0.8,150.0,257.0,321.0
1987,ELM,Elmira Corning Rgnl,Elmira,United States,-76.891611,42.159889,3.58,170.0,2494.0,696.0,2.75,172.0,1912.0,696.0
1987,ELP,El Paso Intl,El Paso,United States,-106.377583,31.80725,6.38,365.0,36304.0,5693.0,7.86,355.0,44764.0,5693.0
1987,ERI,Erie Intl Tom Ridge Fld,Erie,United States,-80.176217,42.082022,6.09,142.0,4261.0,700.0,3.41,129.0,2390.0,700.0
1987,EUG,Mahlon Sweet Fld,Eugene,United States,-123.211972,44.124583,16.9,363.0,19875.0,1176.0,15.51,366.0,18242.0,1176.0
1987,EVV,Evansville Regional,Evansville,United States,-87.532364,38.036997,5.55,173.0,3887.0,700.0,4.68,168.0,3277.0,700.0
1987,EWR,Newark Liberty Intl,Newark,United States,-74.168667,40.6925,9.1,732.0,281920.0,30991.0,9.98,742.0,309397.0,30991.0
1987,EYW,Key West Intl,Key West,United States,-81.759556,24.556111,3.71,269.0,1965.0,530.0,3.17,271.0,1679.0,530.0
1987,FAI,Fairbanks Intl,Fairbanks,United States,-147.856267,64.815114,11.14,190.0,8990.0,807.0,8.03,1380.0,6483.0,807.0
1987,FAR,Hector International Airport,Fargo,United States,-96.8157639,46.92065,8.72,264.0,7469.0,857.0,6.6,308.0,5652.0,857.0
1987,FAT,Fresno Yosemite Intl,Fresno,United States,-119.71814,36.776194,13.6,398.0,26063.0,1917.0,12.52,405.0,23994.0,1917.0
1987,FAY,Fayetteville Regional Grannis Field,Fayetteville,United States,-78.8803,34.9912,2.43,278.0,2660.0,1096.0,1.08,281.0,1188.0,1096.0
1987,FCA,Glacier Park Intl,Kalispell,United States,-114.256,48.310472,3.81,110.0,682.0,179.0,3.96,109.0,708.0,179.0
1987,FLG,Flagstaff Pulliam Airport,Flagstaff,United States,-111.6692392,35.140318,6.76,193.0,3893.0,576.0,5.9,187.0,3401.0,576.0
1987,FLL,Fort Lauderdale Hollywood Intl,Fort Lauderdale,United States,-80.15275,26.072583,6.58,368.0,68336.0,10391.0,6.33,1320.0,65817.0,10391.0
1987,FNT,Bishop International,Flint,United States,-83.743629,42.965424,8.99,76.0,2462.0,274.0,6.6,61.0,1808.0,274.0
1987,FOE,Forbes Fld,Topeka,United States,-95.663611,38.950944,-2.09,15.0,-119.0,57.0,-1.32,18.0,-75.0,57.0
1987,FSD,Sioux Falls,Sioux Falls,United States,-96.741914,43.582014,6.58,322.0,11564.0,1757.0,6.32,290.0,11104.0,1757.0
1987,FWA,Fort Wayne,Fort Wayne,United States,-85.195139,40.978472,6.26,171.0,7057.0,1127.0,2.82,160.0,3174.0,1127.0
1987,GCN,Grand Canyon National Park Airport,Grand Canyon,United States,-112.1469722,35.9523611,7.45,290.0,3123.0,419.0,8.12,290.0,3402.0,419.0
1987,GEG,Spokane Intl,Spokane,United States,-117.533833,47.619861,10.78,509.0,30705.0,2848.0,8.98,481.0,25573.0,2848.0
1987,GFK,Grand Forks Intl,Grand Forks,United States,-97.176111,47.949256,11.28,116.0,3507.0,311.0,4.13,107.0,1285.0,311.0
1987,GJT,Grand Junction Regional,Grand Junction,United States,-108.526735,39.122413,11.64,521.0,6809.0,585.0,9.22,497.0,5392.0,585.0
1987,GNV,Gainesville Rgnl,Gainesville,United States,-82.271778,29.690056,0.94,208.0,567.0,606.0,3.73,196.0,2262.0,606.0
1987,GPT,Gulfport-Biloxi,Gulfport,United States,-89.070111,30.407278,9.91,57.0,3201.0,323.0,4.28,52.0,1383.0,323.0
1987,GRB,Austin Straubel Intl,Green Bay,United States,-88.129589,44.485072,8.71,277.0,5743.0,659.0,4.87,270.0,3212.0,659.0
1987,GRR,Gerald R Ford Intl,Grand Rapids,United States,-85.522806,42.880833,5.92,230.0,14896.0,2516.0,4.58,230.0,11516.0,2516.0
1987,GSO,Piedmont Triad,Greensboro,United States,-79.937306,36.09775,5.23,196.0,30329.0,5796.0,4.32,198.0,25013.0,5796.0
1987,GSP,Greenville-Spartanburg International,Greenville,United States,-82.218889,34.895556,3.6,292.0,7809.0,2168.0,2.88,292.0,6241.0,2168.0
1987,GTF,Great Falls Intl,Great Falls,United States,-111.370689,47.482,4.17,271.0,4450.0,1067.0,3.37,330.0,3596.0,1067.0
1987,GUC,Gunnison - Crested Butte,Gunnison,United States,-106.933056,38.533889,26.21,195.0,760.0,29.0,20.52,196.0,595.0,29.0
1987,HDN,Yampa Valley,Hayden,United States,-107.21766,40.481181,16.58,134.0,1061.0,64.0,12.59,101.0,806.0,64.0
1987,HLN,Helena Rgnl,Helena,United States,-111.98275,46.606806,9.65,200.0,2587.0,268.0,6.1,192.0,1634.0,268.0
1987,HNL,Honolulu Intl,Honolulu,United States,-157.922428,21.318681,9.03,932.0,34549.0,3827.0,9.71,915.0,37166.0,3827.0
1987,HOU,William P Hobby,Houston,United States,-95.278889,29.645419,4.89,336.0,69875.0,14286.0,7.14,322.0,101976.0,14286.0
1987,HPN,Westchester Co,White Plains,United States,-73.707575,41.066959,6.64,288.0,4053.0,610.0,6.41,301.0,3910.0,610.0
1987,HRL,Valley Intl,Harlingen,United States,-97.654389,26.2285,2.87,152.0,4835.0,1687.0,4.18,160.0,7058.0,1687.0
1987,HSV,Huntsville International Airport-Carl T Jones Field,Huntsville,United States,-86.7750556,34.6371944,1.6,127.0,2469.0,1546.0,1.8,282.0,2777.0,1546.0
1987,HTS,Tri State Milton J Ferguson Field,Huntington,United States,-82.558,38.3667,5.96,187.0,3697.0,620.0,7.23,1418.0,4483.0,620.0
1987,IAD,Washington Dulles Intl,Washington,United States,-77.455811,38.944533,6.87,488.0,100001.0,14560.0,5.86,470.0,85342.0,14560.0
1987,IAH,George Bush Intercontinental,Houston,United States,-95.341442,29.984433,7.66,511.0,165263.0,21566.0,10.13,560.0,218526.0,21566.0
1987,ICT,Wichita Mid Continent,Wichita,United States,-97.433056,37.649944,5.24,346.0,18732.0,3575.0,4.94,341.0,17674.0,3575.0
1987,IDA,Idaho Falls Rgnl,Idaho Falls,United States,-112.07075,43.514556,11.82,201.0,3853.0,326.0,8.43,194.0,2748.0,326.0
1987,ILG,New Castle,Wilmington,United States,-75.606528,39.678722,-3.72,8.0,-108.0,29.0,-2.24,7.0,-65.0,29.0
1987,ILM,Wilmington Intl,Wilmington,United States,-77.902569,34.270615,4.23,104.0,4861.0,1150.0,1.72,107.0,1975.0,1150.0
1987,IND,Indianapolis Intl,Indianapolis,United States,-86.294383,39.717331,7.65,438.0,67467.0,8817.0,5.93,1380.0,52301.0,8817.0
1987,ISO,Kinston Regional Jetport,Kinston,United States,-77.608889,35.331389,7.57,79.0,2780.0,367.0,4.99,79.0,1833.0,367.0
1987,ISP,Long Island Mac Arthur,Islip,United States,-73.100222,40.79525,6.77,263.0,13883.0,2050.0,4.11,258.0,8433.0,2050.0
1987,ITH,Ithaca Tompkins Rgnl,Ithaca,United States,-76.458444,42.491028,2.69,73.0,1720.0,640.0,2.63,48.0,1682.0,640.0
1987,JAC,Jackson Hole Airport,Jacksn Hole,United States,-110.73775,43.607333333,13.94,341.0,3151.0,226.0,10.34,312.0,2337.0,226.0
1987,JAN,Jackson Evers Intl,Jackson,United States,-90.075889,32.311167,7.11,234.0,18375.0,2583.0,5.28,235.0,13648.0,2583.0
1987,JAX,Jacksonville Intl,Jacksonville,United States,-81.687861,30.494056,5.73,292.0,37235.0,6498.0,4.34,1395.0,28229.0,6498.0
1987,JFK,John F Kennedy Intl,New York,United States,-73.778925,40.639751,10.17,283.0,124803.0,12273.0,8.96,275.0,109981.0,12273.0
1987,JNU,Juneau Intl,Juneau,United States,-134.576278,58.354972,12.69,303.0,9237.0,728.0,10.52,312.0,7659.0,728.0
1987,KOA,Kona Intl At Keahole,Kona,United States,-156.045631,19.738767,12.37,144.0,1967.0,159.0,10.78,148.0,1714.0,159.0
1987,KTN,Ketchikan Intl,Ketchikan,United States,-131.71375,55.355556,10.38,690.0,5272.0,508.0,7.47,694.0,3793.0,508.0
1987,LAN,Capital City,Lansing,United States,-84.587357,42.7787,6.74,123.0,4946.0,734.0,4.12,120.0,3026.0,734.0
1987,LAS,Mc Carran Intl,Las Vegas,United States,-115.15225,36.080056,9.88,860.0,190170.0,19239.0,7.45,1380.0,143371.0,19239.0
1987,LAX,Los Angeles Intl,Los Angeles,United States,-118.408075,33.942536,15.3,592.0,698222.0,45646.0,12.79,1380.0,583795.0,45646.0
1987,LBB,Lubbock Preston Smith Intl,Lubbock,United States,-101.822778,33.663639,6.59,274.0,14436.0,2192.0,5.94,275.0,13015.0,2192.0
1987,LEX,Blue Grass,Lexington KY,United States,-84.605889,38.0365,7.57,277.0,18137.0,2395.0,4.74,282.0,11348.0,2395.0
1987,LFT,Lafayette Rgnl,Lafayette,United States,-91.987611,30.205278,6.26,368.0,1872.0,299.0,6.75,368.0,2019.0,299.0
1987,LGA,La Guardia,New York,United States,-73.872608,40.777245,7.21,500.0,206135.0,28596.0,6.58,416.0,188047.0,28596.0
1987,LGB,Long Beach,Long Beach,United States,-118.151611,33.817722,13.79,485.0,29255.0,2122.0,8.84,223.0,18767.0,2122.0
1987,LIH,Lihue,Lihue,United States,-159.338958,21.975983,3.12,158.0,511.0,164.0,0.24,154.0,40.0,164.0
1987,LIT,Adams Fld,Little Rock,United States,-92.224306,34.729444,5.13,401.0,18976.0,3701.0,4.03,397.0,14921.0,3701.0
1987,LMT,Klamath Falls Airport,Klamath Falls,United States,-121.733,42.1561,11.57,123.0,671.0,58.0,11.03,124.0,640.0,58.0
1987,LNK,Lincoln,Lincoln,United States,-96.75925,40.850971,7.0,375.0,11103.0,1587.0,6.17,352.0,9786.0,1587.0
1987,LSE,La Crosse Municipal,La Crosse,United States,-91.256711,43.878986,4.5,103.0,1912.0,425.0,3.84,105.0,1630.0,425.0
1987,LYH,Lynchburg Regional Preston Glenn Field,Lynchburg,United States,-79.2004,37.3267,11.14,91.0,4946.0,444.0,8.79,82.0,3902.0,444.0
1987,MAF,Midland Intl,Midland,United States,-102.201914,31.942528,2.71,257.0,6467.0,2382.0,4.86,260.0,11569.0,2382.0
1987,MBS,Mbs Intl,Saginaw,United States,-84.079647,43.532913,3.25,386.0,2638.0,812.0,2.98,385.0,2422.0,812.0
1987,MCI,Kansas City Intl,Kansas City,United States,-94.713905,39.297606,9.13,436.0,117849.0,12910.0,8.12,465.0,104852.0,12910.0
1987,MCO,Orlando Intl,Orlando,United States,-81.308994,28.429394,8.38,469.0,144967.0,17305.0,6.18,1380.0,106859.0,17305.0
1987,MDT,Harrisburg Intl,Harrisburg,United States,-76.763403,40.193494,6.07,271.0,9465.0,1560.0,4.14,269.0,6454.0,1560.0
1987,MDW,Chicago Midway Intl,Chicago,United States,-87.752417,41.785972,9.43,368.0,42969.0,4558.0,6.63,425.0,30203.0,4558.0
1987,MEM,Memphis Intl,Memphis,United States,-89.976667,35.042417,11.26,869.0,214929.0,19081.0,7.45,385.0,142118.0,19081.0
1987,MFE,Mc Allen Miller Intl,Mcallen,United States,-98.238611,26.175833,11.71,166.0,4766.0,407.0,8.22,161.0,3347.0,407.0
1987,MFR,Rogue Valley Intl Medford,Medford,United States,-122.8735,42.374228,17.1,387.0,14209.0,831.0,17.13,388.0,14235.0,831.0
1987,MGM,Montgomery Regional Airport ,MONTGOMERY,United States,-86.3939722,32.3006389,7.56,125.0,6659.0,881.0,4.4,119.0,3880.0,881.0
1987,MHT,Manchester Regional Airport,Manchester NH,United States,-71.435667,42.932556,11.58,222.0,6197.0,535.0,9.54,224.0,5105.0,535.0
1987,MIA,Miami Intl,Miami,United States,-80.290556,25.79325,8.32,588.0,146846.0,17649.0,8.32,735.0,146846.0,17649.0
1987,MKE,General Mitchell Intl,Milwaukee,United States,-87.896583,42.947222,8.36,369.0,36517.0,4368.0,5.83,319.0,25454.0,4368.0
1987,MLB,Melbourne Intl,Melbourne,United States,-80.645258,28.102753,5.79,213.0,6225.0,1076.0,4.15,215.0,4463.0,1076.0
1987,MLI,Quad City Intl,Moline,United States,-90.507539,41.448528,8.36,230.0,15382.0,1839.0,4.52,227.0,8321.0,1839.0
1987,MLU,Monroe Rgnl,Monroe,United States,-92.037689,32.510864,13.7,193.0,8743.0,638.0,12.33,1434.0,7867.0,638.0
1987,MOB,Mobile Rgnl,Mobile,United States,-88.242814,30.691231,5.52,463.0,11781.0,2135.0,3.39,168.0,7233.0,2135.0
1987,MOT,Minot Intl,Minot,United States,-101.280333,48.259378,4.63,412.0,2071.0,447.0,5.36,310.0,2395.0,447.0
1987,MRY,Monterey Peninsula,Monterey,United States,-121.842944,36.587,13.78,261.0,12241.0,888.0,9.45,234.0,8392.0,888.0
1987,MSN,Dane Co Rgnl Truax Fld,Madison,United States,-89.337514,43.139858,6.32,226.0,7057.0,1117.0,3.72,143.0,4152.0,1117.0
1987,MSO,Missoula Intl,Missoula,United States,-114.090556,46.916306,4.76,302.0,3370.0,708.0,7.17,309.0,5075.0,708.0
1987,MSP,Minneapolis St Paul Intl,Minneapolis,United States,-93.221767,44.881956,10.8,940.0,249633.0,23108.0,9.53,1430.0,220129.0,23108.0
1987,MSY,Louis Armstrong New Orleans Intl,New Orleans,United States,-90.258028,29.993389,8.3,383.0,83965.0,10112.0,7.45,420.0,75284.0,10112.0
1987,MYR,Myrtle Beach Intl,Myrtle Beach,United States,-78.928333,33.67975,3.59,144.0,3560.0,993.0,3.77,130.0,3743.0,993.0
1987,OAJ,Albert J Ellis,Jacksonville NC,United States,-77.612139,34.829164,3.91,60.0,1778.0,455.0,2.0,48.0,910.0,455.0
1987,OAK,Metropolitan Oakland Intl,Oakland,United States,-122.220722,37.721278,8.69,534.0,72969.0,8393.0,7.0,533.0,58737.0,8393.0
1987,OGG,Kahului,Kahului,United States,-156.430458,20.89865,8.82,286.0,7850.0,890.0,5.9,294.0,5249.0,890.0
1987,OKC,Will Rogers World,Oklahoma City,United States,-97.600733,35.393089,9.31,492.0,59413.0,6381.0,7.17,516.0,45754.0,6381.0
1987,OMA,Eppley Afld,Omaha,United States,-95.894069,41.303167,6.55,377.0,29266.0,4471.0,5.93,344.0,26535.0,4471.0
1987,OME,Nome,Nome,United States,-165.445247,64.512203,10.53,175.0,2116.0,201.0,8.14,175.0,1637.0,201.0
1987,ONT,Ontario Intl,Ontario,United States,-117.601194,34.056,9.31,338.0,75247.0,8081.0,7.61,321.0,61461.0,8081.0
1987,ORD,Chicago Ohare Intl,Chicago,United States,-87.904842,41.978603,7.99,846.0,536786.0,67216.0,7.65,847.0,514421.0,67216.0
1987,ORF,Norfolk Intl,Norfolk,United States,-76.201222,36.894611,7.17,303.0,51342.0,7163.0,4.8,305.0,34350.0,7163.0
1987,ORH,Worcester Regional Airport,Worcester,United States,-71.8757,42.2673,9.52,226.0,5818.0,611.0,5.48,233.0,3351.0,611.0
1987,OTZ,Ralph Wien Mem,Kotzebue,United States,-162.59855,66.884678,10.88,176.0,2132.0,196.0,6.39,172.0,1252.0,196.0
1987,PBI,Palm Beach Intl,West Palm Beach,United States,-80.095589,26.683161,6.83,402.0,40989.0,6001.0,5.93,434.0,35574.0,6001.0
1987,PDX,Portland Intl,Portland,United States,-122.5975,45.588722,12.25,365.0,123440.0,10077.0,9.38,435.0,94532.0,10077.0
1987,PFN,Panama City Bay Co Intl,Panama City,United States,-85.682806,30.212083,6.63,139.0,1081.0,163.0,1.56,140.0,255.0,163.0
1987,PHF,Newport News Williamsburg Intl,Newport News,United States,-76.492989,37.131894,3.09,75.0,829.0,268.0,2.36,70.0,632.0,268.0
1987,PHL,Philadelphia Intl,Philadelphia,United States,-75.241139,39.871944,10.21,463.0,210120.0,20570.0,8.93,466.0,183597.0,20570.0
1987,PHX,Phoenix Sky Harbor Intl,Phoenix,United States,-112.011583,33.434278,12.01,607.0,358504.0,29848.0,9.1,579.0,271488.0,29848.0
1987,PIA,Peoria Regional,Peoria,United States,-89.693258,40.664203,4.9,373.0,5565.0,1135.0,3.15,583.0,3570.0,1135.0
1987,PIE,St Petersburg Clearwater Intl,St. Petersburg,United States,-82.687389,27.910167,-9.66,53.0,-1748.0,181.0,0.91,69.0,165.0,181.0
1987,PIR,Pierre Regional Airport,Pierre,United States,-100.286,44.3827,73.0,73.0,73.0,1.0,85.0,85.0,85.0,1.0
1987,PIT,Pittsburgh Intl,Pittsburgh,United States,-80.232872,40.491467,10.88,499.0,312843.0,28765.0,8.34,510.0,239814.0,28765.0
1987,PNS,Pensacola Rgnl,Pensacola,United States,-87.186611,30.473425,6.6,245.0,12419.0,1881.0,4.8,241.0,9024.0,1881.0
1987,PSC,Tri Cities Airport,Pasco,United States,-119.119,46.2647,10.13,200.0,4671.0,461.0,7.41,198.0,3416.0,461.0
1987,PSG,Petersburg James A. Johnson,Petersburg,United States,-132.945278,56.801667,12.34,264.0,2086.0,169.0,8.99,252.0,1520.0,169.0
1987,PSP,Palm Springs Intl,Palm Springs,United States,-116.506694,33.829667,9.77,325.0,13539.0,1386.0,8.41,325.0,11654.0,1386.0
1987,PUB,Pueblo Memorial,Pueblo,United States,-104.496572,38.289085,7.85,132.0,2747.0,350.0,5.78,115.0,2022.0,350.0
1987,PVD,Theodore Francis Green State,Providence,United States,-71.420383,41.732581,7.8,184.0,23741.0,3043.0,5.38,211.0,16375.0,3043.0
1987,PWM,Portland Intl Jetport,Portland,United States,-70.309281,43.646161,9.93,366.0,16844.0,1696.0,7.25,362.0,12301.0,1696.0
1987,RAP,Rapid City Regional Airport,Rapid City,United States,-103.057222,44.045278,4.81,334.0,4482.0,932.0,4.25,254.0,3963.0,932.0
1987,RDD,Redding Muni,Redding,United States,-122.293389,40.509,19.05,204.0,6514.0,342.0,15.26,184.0,5220.0,342.0
1987,RDM,Roberts Fld,Redmond-Bend,United States,-121.149964,44.254066,12.67,126.0,2104.0,166.0,11.95,114.0,1983.0,166.0
1987,RDU,Raleigh Durham Intl,Raleigh-durham,United States,-78.787472,35.877639,6.43,726.0,98758.0,15370.0,4.97,735.0,76452.0,15370.0
1987,RIC,Richmond Intl,Richmond,United States,-77.319667,37.505167,7.8,303.0,37396.0,4797.0,5.04,306.0,24200.0,4797.0
1987,RNO,Reno Tahoe Intl,Reno,United States,-119.768108,39.499108,10.74,301.0,62065.0,5779.0,9.57,306.0,55291.0,5779.0
1987,ROA,Roanoke Regional,Roanoke VA,United States,-79.975417,37.325472,7.4,178.0,9859.0,1332.0,5.6,160.0,7463.0,1332.0
1987,ROC,Greater Rochester Intl,Rochester,United States,-77.672389,43.118866,5.35,352.0,32411.0,6058.0,4.61,373.0,27903.0,6058.0
1987,RST,Rochester,Rochester,United States,-92.500014,43.908283,7.0,103.0,3862.0,552.0,3.45,105.0,1906.0,552.0
1987,RSW,Southwest Florida Intl,Fort Myers,United States,-81.755167,26.536167,5.22,577.0,20520.0,3932.0,4.84,578.0,19031.0,3932.0
1987,SAN,San Diego Intl,San Diego,United States,-117.189667,32.733556,11.45,468.0,169403.0,14795.0,9.47,480.0,140042.0,14795.0
1987,SAT,San Antonio Intl,San Antonio,United States,-98.469778,29.533694,4.22,342.0,34579.0,8194.0,5.86,349.0,48024.0,8194.0
1987,SAV,Savannah Hilton Head Intl,Savannah,United States,-81.202139,32.127583,2.95,280.0,8801.0,2984.0,2.28,282.0,6813.0,2984.0
1987,SBA,Santa Barbara Muni,Santa Barbara,United States,-119.840372,34.426211,14.25,394.0,16426.0,1153.0,11.79,401.0,13599.0,1153.0
1987,SBN,South Bend Rgnl,South Bend,United States,-86.31725,41.708661,5.02,79.0,3339.0,665.0,3.65,74.0,2427.0,665.0
1987,SCC,Deadhorse,Deadhorse,United States,-148.465167,70.19475,8.88,163.0,1190.0,134.0,2.6,156.0,349.0,134.0
1987,SCK,Stockton Metropolitan,Stockton,United States,-121.238306,37.894167,10.38,320.0,4681.0,451.0,13.43,444.0,6058.0,451.0
1987,SDF,Louisville International Airport,Louisville,United States,-85.7364989,38.1740858,7.31,187.0,45715.0,6257.0,3.91,239.0,24471.0,6257.0
1987,SEA,Seattle Tacoma Intl,Seattle,United States,-122.309306,47.449,11.84,378.0,206139.0,17411.0,9.46,768.0,164753.0,17411.0
1987,SFO,San Francisco Intl,San Francisco,United States,-122.374889,37.618972,16.39,1033.0,576020.0,35155.0,14.63,1380.0,514351.0,35155.0
1987,SGF,Springfield Branson Natl,Springfield,United States,-93.388639,37.245667,9.3,382.0,7926.0,852.0,5.45,366.0,4640.0,852.0
1987,SHV,Shreveport Rgnl,Shreveport,United States,-93.8256,32.446629,7.51,241.0,15069.0,2006.0,6.08,1380.0,12201.0,2006.0
1987,SIT,Sitka Rocky Gutierrez,Sitka,United States,-135.361611,57.047138,15.18,269.0,4280.0,282.0,12.42,262.0,3503.0,282.0
1987,SJC,Norman Y Mineta San Jose Intl,San Jose,United States,-121.929022,37.3626,7.95,509.0,91981.0,11570.0,7.66,455.0,88648.0,11570.0
1987,SLC,Salt Lake City Intl,Salt Lake City,United States,-111.977772,40.788389,12.29,395.0,202789.0,16498.0,8.67,1439.0,143107.0,16498.0
1987,SMF,Sacramento Intl,Sacramento,United States,-121.590778,38.695417,8.53,343.0,58956.0,6912.0,7.37,315.0,50922.0,6912.0
1987,SNA,John Wayne Arpt Orange Co,Santa Ana,United States,-117.868222,33.675667,12.96,421.0,94715.0,7310.0,10.05,394.0,73429.0,7310.0
1987,SRQ,Sarasota Bradenton Intl,Sarasota,United States,-82.554389,27.395444,6.02,215.0,15648.0,2598.0,4.68,545.0,12149.0,2598.0
1987,STL,Lambert St Louis Intl,St. Louis,United States,-90.370028,38.748697,8.88,327.0,284874.0,32097.0,7.95,326.0,255200.0,32097.0
1987,SUX,Sioux Gateway Col Bud Day Fld,Sioux City,United States,-96.384367,42.402603,3.9,354.0,2829.0,725.0,4.14,346.0,2998.0,725.0
1987,SYR,Syracuse Hancock Intl,Syracuse,United States,-76.106311,43.111187,7.82,259.0,65492.0,8377.0,6.46,245.0,54108.0,8377.0
1987,TLH,Tallahassee Rgnl,Tallahassee,United States,-84.350333,30.396528,4.08,184.0,8537.0,2094.0,2.97,176.0,6209.0,2094.0
1987,TOL,Toledo,Toledo,United States,-83.807833,41.586806,7.52,140.0,6959.0,926.0,4.25,136.0,3939.0,926.0
1987,TPA,Tampa Intl,Tampa,United States,-82.53325,27.975472,6.08,580.0,92946.0,15288.0,5.46,595.0,83498.0,15288.0
1987,TRI,Tri-Cities Regional Airport,BRISTOL,United States,-82.4074167,36.4752222,3.72,62.0,2972.0,799.0,1.58,60.0,1262.0,799.0
1987,TUL,Tulsa Intl,Tulsa,United States,-95.888111,36.198389,6.68,530.0,43574.0,6525.0,5.55,520.0,36227.0,6525.0
1987,TUS,Tucson Intl,Tucson,United States,-110.941028,32.116083,8.94,358.0,44280.0,4954.0,7.68,390.0,38056.0,4954.0
1987,TVL,Lake Tahoe Airport,South Lake Tahoe,United States,-119.995278,38.893889,9.64,145.0,2324.0,241.0,8.99,138.0,2167.0,241.0
1987,TYS,Mc Ghee Tyson,Knoxville,United States,-83.994028,35.810972,5.62,223.0,13557.0,2412.0,3.24,204.0,7808.0,2412.0
1987,UCA,Union Station,Utica,United States,-75.223333,43.104167,9.41,119.0,2371.0,252.0,8.29,121.0,2089.0,252.0
1987,VPS,Eglin Afb,Valparaiso,United States,-86.5254,30.48325,8.06,66.0,2758.0,342.0,2.62,56.0,895.0,342.0
1987,WRG,Wrangell Airport,Wrangell,United States,-132.37,56.4843,9.13,263.0,1534.0,168.0,8.05,263.0,1353.0,168.0
1987,YAK,Yakutat,Yakutat,United States,-139.3937,59.3012,8.09,177.0,1222.0,151.0,4.81,173.0,726.0,151.0
1987,YKM,Yakima Air Terminal McAllister Field,Yakima,United States,-120.544,46.5682,6.07,84.0,1026.0,169.0,9.28,116.0,1569.0,169.0
1987,YUM,Yuma Mcas Yuma Intl,Yuma,United States,-114.60598,32.656578,2.19,88.0,1115.0,509.0,3.79,90.0,1928.0,509.0
1988,ABE,Lehigh Valley Intl,Allentown,United States,-75.440806,40.652083,6.77,279.0,33485.0,4947.0,5.35,268.0,26447.0,4947.0
1988,ABQ,Albuquerque International Sunport,Albuquerque,United States,-106.6091944,35.0402222,3.32,642.0,104428.0,31480.0,4.78,1320.0,150566.0,31480.0
1988,ACV,Arcata,Arcata CA,United States,-124.108611,40.978111,33.79,110.0,642.0,19.0,26.37,84.0,501.0,19.0
1988,ACY,Atlantic City Intl,Atlantic City,United States,-74.577167,39.457583,9.56,190.0,4275.0,447.0,4.35,180.0,1946.0,447.0
1988,AGS,Augusta Rgnl At Bush Fld,Bush Field,United States,-81.9645,33.369944,4.43,340.0,14266.0,3218.0,3.66,1380.0,11769.0,3218.0
1988,ALB,Albany Intl,Albany,United States,-73.801692,42.748267,7.56,352.0,94114.0,12448.0,5.93,362.0,73874.0,12448.0
1988,ALO,Waterloo Regional Airport,Waterloo,United States,-92.4003,42.5571,5.73,94.0,665.0,116.0,5.43,64.0,630.0,116.0
1988,AMA,Rick Husband Amarillo Intl,Amarillo,United States,-101.705931,35.219369,2.11,320.0,16029.0,7608.0,3.93,338.0,29876.0,7608.0
1988,ANC,Ted Stevens Anchorage Intl,Anchorage,United States,-149.996361,61.174361,6.78,462.0,92423.0,13641.0,5.95,1380.0,81198.0,13641.0
1988,APF,Naples Muni,Naples,United States,-81.775294,26.152619,2.25,111.0,1812.0,807.0,2.64,114.0,2127.0,807.0
1988,ATL,Hartsfield Jackson Atlanta Intl,Atlanta,United States,-84.428067,33.636719,6.81,494.0,1767681.0,259731.0,6.4,1414.0,1662042.0,259731.0
1988,ATW,Appleton,Appleton,United States,-88.507576,44.257526,2.68,197.0,3247.0,1211.0,1.93,190.0,2342.0,1211.0
1988,AUS,Austin Bergstrom Intl,Austin,United States,-97.669889,30.194528,2.81,360.0,81486.0,28983.0,3.99,343.0,115600.0,28983.0
1988,AVL,Asheville Regional Airport,Asheville,United States,-82.541806,35.436194,6.15,247.0,14284.0,2321.0,5.41,410.0,12557.0,2321.0
1988,AVP,Wilkes Barre Scranton Intl,Scranton,United States,-75.723403,41.338478,5.79,164.0,13153.0,2273.0,4.12,613.0,9368.0,2273.0
1988,AZO,Kalamazoo,Kalamazoo,United States,-85.552058,42.234875,5.51,723.0,22182.0,4027.0,2.58,725.0,10394.0,4027.0
1988,BDL,Bradley Intl,Windsor Locks,United States,-72.683222,41.938889,6.05,631.0,188715.0,31167.0,5.74,616.0,178961.0,31167.0
1988,BET,Bethel,Bethel,United States,-161.838,60.779778,7.02,157.0,4099.0,584.0,4.25,153.0,2483.0,584.0
1988,BFI,Boeing Fld King Co Intl,Seattle,United States,-122.301947,47.53,20.0,20.0,20.0,1.0,28.0,28.0,28.0,1.0
1988,BFL,Meadows Fld,Bakersfield,United States,-119.05677,35.433598,2.95,283.0,3779.0,1281.0,3.82,266.0,4895.0,1281.0
1988,BGM,Greater Binghamton Edwin A Link Fld,Binghamton,United States,-75.979839,42.208689,5.63,223.0,12157.0,2161.0,3.84,217.0,8299.0,2161.0
1988,BGR,Bangor Intl,Bangor,United States,-68.828139,44.807444,4.52,163.0,9628.0,2131.0,3.78,160.0,8051.0,2131.0
1988,BHM,Birmingham Intl,Birmingham,United States,-86.75355,33.562942,4.18,365.0,77772.0,18585.0,3.55,336.0,65977.0,18585.0
1988,BIL,Billings Logan International Airport,Billings,United States,-108.537654,45.80921,4.73,316.0,29494.0,6240.0,4.37,319.0,27244.0,6240.0
1988,BIS,Bismarck Municipal Airport,Bismarck,United States,-100.757931,46.775842,-0.09,381.0,-353.0,4113.0,1.87,370.0,7674.0,4113.0
1988,BLI,Bellingham Intl,Bellingham,United States,-122.537528,48.792694,1.64,71.0,1709.0,1045.0,2.76,180.0,2886.0,1045.0
1988,BNA,Nashville Intl,Nashville,United States,-86.678194,36.124472,4.37,649.0,243196.0,55696.0,5.18,1435.0,288687.0,55696.0
1988,BOI,Boise Air Terminal,Boise,United States,-116.222861,43.564361,4.67,353.0,30944.0,6623.0,4.13,353.0,27350.0,6623.0
1988,BOS,General Edward Lawrence Logan Intl,Boston,United States,-71.005181,42.364347,8.45,807.0,844764.0,99921.0,8.26,816.0,825429.0,99921.0
1988,BTM,Bert Mooney Airport,Butte,United States,-112.497472,45.954806,4.44,203.0,3186.0,718.0,2.58,205.0,1851.0,718.0
1988,BTR,Baton Rouge Metro Ryan Fld,Baton Rouge,United States,-91.149639,30.533167,4.96,378.0,43524.0,8767.0,4.35,379.0,38170.0,8767.0
1988,BTV,Burlington Intl,Burlington,United States,-73.153278,44.471861,7.05,270.0,48545.0,6882.0,5.58,237.0,38388.0,6882.0
1988,BUF,Buffalo Niagara Intl,Buffalo,United States,-78.732167,42.940525,6.02,885.0,166714.0,27704.0,5.32,865.0,147367.0,27704.0
1988,BUR,Bob Hope,Burbank,United States,-118.358667,34.200667,5.97,497.0,138702.0,23217.0,5.71,492.0,132579.0,23217.0
1988,BWI,Baltimore Washington Intl,Baltimore,United States,-76.668333,39.175361,8.05,721.0,544753.0,67672.0,8.29,1348.0,560984.0,67672.0
1988,BZN,Gallatin Field,Bozeman,United States,-111.160151,45.777643,5.49,381.0,19758.0,3597.0,4.63,377.0,16672.0,3597.0
1988,CAE,Columbia Metropolitan,Columbia,United States,-81.119528,33.938833,4.67,311.0,49872.0,10686.0,4.21,315.0,45002.0,10686.0
1988,CAK,Akron Canton Regional Airport,Akron,United States,-81.4421944,40.9160833,4.54,337.0,18623.0,4099.0,4.47,366.0,18327.0,4099.0
1988,CCR,Buchanan Field Airport,Concord,United States,-122.0568889,37.9896667,-2.99,176.0,-3857.0,1289.0,2.11,186.0,2717.0,1289.0
1988,CDV,Merle K Mudhole Smith,Cordova,United States,-145.477556,60.491778,5.58,293.0,3697.0,663.0,5.39,290.0,3571.0,663.0
1988,CHA,Lovell Fld,Chattanooga,United States,-85.203808,35.035278,4.65,362.0,24103.0,5185.0,2.9,860.0,15052.0,5185.0
1988,CHO,Charlottesville-Albemarle,Charlottesville VA,United States,-78.452861,38.138639,6.53,196.0,11898.0,1822.0,5.81,1198.0,10594.0,1822.0
1988,CHS,Charleston Afb Intl,Charleston,United States,-80.040528,32.898647,4.47,780.0,62482.0,13973.0,4.67,1370.0,65259.0,13973.0
1988,CID,Cedar Rapids,Cedar Rapids,United States,-91.710806,41.884694,4.35,286.0,22007.0,5063.0,2.99,260.0,15156.0,5063.0
1988,CLE,Cleveland Hopkins Intl,Cleveland,United States,-81.849794,41.411689,6.97,869.0,412866.0,59233.0,6.3,865.0,373422.0,59233.0
1988,CLT,Charlotte Douglas Intl,Charlotte,United States,-80.943139,35.214,11.17,1379.0,1129332.0,101093.0,10.29,1402.0,1039844.0,101093.0
1988,CMH,Port Columbus Intl,Columbus,United States,-82.891889,39.997972,7.18,875.0,193876.0,26993.0,5.03,1391.0,135824.0,26993.0
1988,CMI,Champaign,Champaign,United States,-88.278056,40.03925,6.2,379.0,13760.0,2218.0,3.77,342.0,8369.0,2218.0
1988,COS,City Of Colorado Springs Muni,Colorado Springs,United States,-104.700778,38.805805,3.55,264.0,37303.0,10508.0,2.75,272.0,28936.0,10508.0
1988,CPR,Natrona Co Intl,Casper,United States,-106.464417,42.908,2.54,154.0,3540.0,1391.0,1.53,156.0,2134.0,1391.0
1988,CRP,Corpus Christi Intl,Corpus Christi,United States,-97.501222,27.770361,2.35,207.0,13027.0,5539.0,3.0,202.0,16592.0,5539.0
1988,CRW,Yeager,Charleston,United States,-81.593189,38.373147,6.88,300.0,31952.0,4641.0,5.79,395.0,26887.0,4641.0
1988,CSG,Columbus Metropolitan Airport,Columbus,United States,-84.9388611,32.5163333,4.76,224.0,4919.0,1034.0,3.1,230.0,3201.0,1034.0
1988,CVG,Cincinnati Northern Kentucky Intl,Cincinnati,United States,-84.667822,39.048836,7.0,586.0,435958.0,62273.0,4.91,1439.0,305457.0,62273.0
1988,CWA,Central Wisconsin,Wassau,United States,-89.646635,44.772726,4.85,220.0,8228.0,1698.0,2.18,220.0,3705.0,1698.0
1988,DAB,Daytona Beach Intl,Daytona Beach,United States,-81.058056,29.179917,5.1,420.0,32538.0,6375.0,5.0,1415.0,31879.0,6375.0
1988,DAL,Dallas Love Fld,Dallas,United States,-96.851778,32.847111,1.49,375.0,53178.0,35638.0,4.11,372.0,146596.0,35638.0
1988,DAY,James M Cox Dayton Intl,Dayton,United States,-84.219375,39.902375,9.53,738.0,338793.0,35562.0,8.68,1001.0,308725.0,35562.0
1988,DCA,Ronald Reagan Washington Natl,Washington,United States,-77.037722,38.852083,6.52,1381.0,581964.0,89277.0,5.76,1320.0,514395.0,89277.0
1988,DEN,Denver Intl,Denver,United States,-104.673178,39.861656,5.3,798.0,854665.0,161146.0,8.82,790.0,1420977.0,161146.0
1988,DET,Coleman A Young Muni,Detroit,United States,-83.009861,42.409195,12.87,291.0,25774.0,2002.0,10.97,269.0,21957.0,2002.0
1988,DFW,Dallas Fort Worth Intl,Dallas-Fort Worth,United States,-97.037997,32.896828,6.31,737.0,1368776.0,216849.0,6.77,1437.0,1469031.0,216849.0
1988,DLH,Duluth Intl,Duluth,United States,-92.193649,46.842091,7.8,349.0,10736.0,1377.0,4.78,340.0,6579.0,1377.0
1988,DRO,Durango La Plata Co,Durango,United States,-107.75377,37.151516,5.16,162.0,3646.0,706.0,4.11,155.0,2901.0,706.0
1988,DSM,Des Moines Intl,Des Moines,United States,-93.663083,41.533972,5.87,613.0,79379.0,13524.0,4.8,608.0,64953.0,13524.0
1988,DTW,Detroit Metro Wayne Co,Detroit,United States,-83.353389,42.212444,8.11,1012.0,877233.0,108114.0,6.97,1010.0,753373.0,108114.0
1988,EAU,Chippewa Valley Regional Airport,Eau Claire,United States,-91.4843,44.8658,-1.14,264.0,-1537.0,1348.0,-2.6,225.0,-3503.0,1348.0
1988,ELM,Elmira Corning Rgnl,Elmira,United States,-76.891611,42.159889,3.93,181.0,10876.0,2764.0,3.15,187.0,8693.0,2764.0
1988,ELP,El Paso Intl,El Paso,United States,-106.377583,31.80725,2.33,420.0,55669.0,23878.0,4.28,275.0,102232.0,23878.0
1988,ERI,Erie Intl Tom Ridge Fld,Erie,United States,-80.176217,42.082022,9.84,204.0,22478.0,2285.0,6.23,186.0,14225.0,2285.0
1988,EUG,Mahlon Sweet Fld,Eugene,United States,-123.211972,44.124583,7.25,261.0,26064.0,3594.0,7.58,260.0,27236.0,3594.0
1988,EVV,Evansville Regional,Evansville,United States,-87.532364,38.036997,6.83,493.0,17729.0,2594.0,4.87,420.0,12639.0,2594.0
1988,EWR,Newark Liberty Intl,Newark,United States,-74.168667,40.6925,8.69,1167.0,1089127.0,125333.0,10.51,1320.0,1317509.0,125333.0
1988,EYW,Key West Intl,Key West,United States,-81.759556,24.556111,0.42,187.0,927.0,2230.0,2.39,186.0,5326.0,2230.0
1988,FAI,Fairbanks Intl,Fairbanks,United States,-147.856267,64.815114,5.08,167.0,18309.0,3603.0,2.19,169.0,7886.0,3603.0
1988,FAR,Hector International Airport,Fargo,United States,-96.8157639,46.92065,2.41,479.0,7036.0,2916.0,2.47,465.0,7203.0,2916.0
1988,FAT,Fresno Yosemite Intl,Fresno,United States,-119.71814,36.776194,2.31,347.0,13011.0,5638.0,4.39,337.0,24755.0,5638.0
1988,FAY,Fayetteville Regional Grannis Field,Fayetteville,United States,-78.8803,34.9912,3.34,418.0,14259.0,4268.0,2.01,403.0,8593.0,4268.0
1988,FCA,Glacier Park Intl,Kalispell,United States,-114.256,48.310472,5.36,124.0,3873.0,722.0,5.53,126.0,3991.0,722.0
1988,FLG,Flagstaff Pulliam Airport,Flagstaff,United States,-111.6692392,35.140318,4.22,214.0,11096.0,2631.0,3.71,174.0,9756.0,2631.0
1988,FLL,Fort Lauderdale Hollywood Intl,Fort Lauderdale,United States,-80.15275,26.072583,7.87,470.0,314462.0,39978.0,7.57,1320.0,302811.0,39978.0
1988,FNT,Bishop International,Flint,United States,-83.743629,42.965424,6.89,145.0,9415.0,1367.0,5.22,147.0,7129.0,1367.0
1988,FSD,Sioux Falls,Sioux Falls,United States,-96.741914,43.582014,6.35,342.0,36368.0,5723.0,5.45,313.0,31191.0,5723.0
1988,FWA,Fort Wayne,Fort Wayne,United States,-85.195139,40.978472,4.3,284.0,21195.0,4929.0,3.44,227.0,16975.0,4929.0
1988,GCN,Grand Canyon National Park Airport,Grand Canyon,United States,-112.1469722,35.9523611,4.17,129.0,7815.0,1876.0,4.55,115.0,8544.0,1876.0
1988,GEG,Spokane Intl,Spokane,United States,-117.533833,47.619861,6.9,465.0,73562.0,10657.0,5.39,1320.0,57439.0,10657.0
1988,GFK,Grand Forks Intl,Grand Forks,United States,-97.176111,47.949256,5.99,231.0,6376.0,1065.0,4.32,230.0,4600.0,1065.0
1988,GJT,Grand Junction Regional,Grand Junction,United States,-108.526735,39.122413,4.62,236.0,10475.0,2267.0,4.07,228.0,9224.0,2267.0
1988,GNV,Gainesville Rgnl,Gainesville,United States,-82.271778,29.690056,2.69,385.0,6953.0,2586.0,4.23,1380.0,10935.0,2586.0
1988,GPT,Gulfport-Biloxi,Gulfport,United States,-89.070111,30.407278,8.47,455.0,9568.0,1130.0,4.31,460.0,4868.0,1130.0
1988,GRB,Austin Straubel Intl,Green Bay,United States,-88.129589,44.485072,4.61,315.0,11253.0,2442.0,2.96,316.0,7217.0,2442.0
1988,GRR,Gerald R Ford Intl,Grand Rapids,United States,-85.522806,42.880833,6.92,406.0,72521.0,10482.0,5.06,1349.0,53063.0,10482.0
1988,GSO,Piedmont Triad,Greensboro,United States,-79.937306,36.09775,7.1,499.0,154321.0,21721.0,5.82,915.0,126341.0,21721.0
1988,GSP,Greenville-Spartanburg International,Greenville,United States,-82.218889,34.895556,4.93,250.0,47413.0,9612.0,4.19,1140.0,40237.0,9612.0
1988,GST,Gustavus Airport,Gustavus,United States,-135.707,58.4253,9.02,162.0,776.0,86.0,8.66,140.0,745.0,86.0
1988,GTF,Great Falls Intl,Great Falls,United States,-111.370689,47.482,2.65,305.0,10420.0,3929.0,2.42,299.0,9507.0,3929.0
1988,GUC,Gunnison - Crested Butte,Gunnison,United States,-106.933056,38.533889,9.34,440.0,1429.0,153.0,4.86,442.0,744.0,153.0
1988,HDN,Yampa Valley,Hayden,United States,-107.21766,40.481181,16.96,1394.0,7682.0,453.0,14.14,1377.0,6407.0,453.0
1988,HLN,Helena Rgnl,Helena,United States,-111.98275,46.606806,4.54,160.0,4887.0,1076.0,2.48,130.0,2665.0,1076.0
1988,HNL,Honolulu Intl,Honolulu,United States,-157.922428,21.318681,8.31,984.0,130158.0,15662.0,6.64,1099.0,104069.0,15662.0
1988,HOU,William P Hobby,Houston,United States,-95.278889,29.645419,2.74,326.0,155938.0,56990.0,5.54,305.0,315776.0,56990.0
1988,HPN,Westchester Co,White Plains,United States,-73.707575,41.066959,7.99,361.0,17672.0,2212.0,7.66,356.0,16940.0,2212.0
1988,HRL,Valley Intl,Harlingen,United States,-97.654389,26.2285,2.53,300.0,16862.0,6676.0,3.1,291.0,20669.0,6676.0
1988,HSV,Huntsville International Airport-Carl T Jones Field,Huntsville,United States,-86.7750556,34.6371944,2.12,348.0,13459.0,6360.0,2.59,350.0,16442.0,6360.0
1988,HTS,Tri State Milton J Ferguson Field,Huntington,United States,-82.558,38.3667,5.22,229.0,12158.0,2328.0,4.72,1250.0,10991.0,2328.0
1988,IAD,Washington Dulles Intl,Washington,United States,-77.455811,38.944533,5.1,405.0,260137.0,50979.0,5.26,410.0,268328.0,50979.0
1988,IAH,George Bush Intercontinental,Houston,United States,-95.341442,29.984433,3.29,893.0,279695.0,85012.0,7.29,1320.0,620090.0,85012.0
1988,ICT,Wichita Mid Continent,Wichita,United States,-97.433056,37.649944,5.45,260.0,64833.0,11890.0,3.82,265.0,45401.0,11890.0
1988,IDA,Idaho Falls Rgnl,Idaho Falls,United States,-112.07075,43.514556,2.67,228.0,5760.0,2157.0,3.55,1360.0,7647.0,2157.0
1988,ILM,Wilmington Intl,Wilmington,United States,-77.902569,34.270615,6.42,229.0,23945.0,3730.0,4.68,239.0,17443.0,3730.0
1988,IND,Indianapolis Intl,Indianapolis,United States,-86.294383,39.717331,7.24,730.0,270824.0,37399.0,5.7,1400.0,213131.0,37399.0
1988,ISO,Kinston Regional Jetport,Kinston,United States,-77.608889,35.331389,3.51,342.0,5046.0,1439.0,3.92,349.0,5641.0,1439.0
1988,ISP,Long Island Mac Arthur,Islip,United States,-73.100222,40.79525,8.25,289.0,62481.0,7570.0,6.13,294.0,46386.0,7570.0
1988,ITH,Ithaca Tompkins Rgnl,Ithaca,United States,-76.458444,42.491028,3.23,224.0,7653.0,2370.0,2.94,650.0,6963.0,2370.0
1988,JAC,Jackson Hole Airport,Jacksn Hole,United States,-110.73775,43.607333333,5.07,573.0,8539.0,1684.0,3.71,585.0,6255.0,1684.0
1988,JAN,Jackson Evers Intl,Jackson,United States,-90.075889,32.311167,4.64,316.0,45282.0,9769.0,3.66,1320.0,35786.0,9769.0
1988,JAX,Jacksonville Intl,Jacksonville,United States,-81.687861,30.494056,4.71,641.0,114425.0,24305.0,4.88,1375.0,118716.0,24305.0
1988,JFK,John F Kennedy Intl,New York,United States,-73.778925,40.639751,11.35,738.0,584323.0,51485.0,11.49,766.0,591754.0,51485.0
1988,JNU,Juneau Intl,Juneau,United States,-134.576278,58.354972,11.29,445.0,37824.0,3349.0,9.23,672.0,30904.0,3349.0
1988,KOA,Kona Intl At Keahole,Kona,United States,-156.045631,19.738767,6.04,110.0,3696.0,612.0,6.09,961.0,3727.0,612.0
1988,KTN,Ketchikan Intl,Ketchikan,United States,-131.71375,55.355556,9.47,453.0,20949.0,2211.0,7.93,445.0,17542.0,2211.0
1988,LAN,Capital City,Lansing,United States,-84.587357,42.7787,4.56,209.0,15251.0,3346.0,2.82,210.0,9431.0,3346.0
1988,LAS,Mc Carran Intl,Las Vegas,United States,-115.15225,36.080056,4.17,371.0,302395.0,72498.0,4.78,1388.0,346767.0,72498.0
1988,LAX,Los Angeles Intl,Los Angeles,United States,-118.408075,33.942536,2.92,715.0,494824.0,169696.0,6.26,1401.0,1063012.0,169696.0
1988,LBB,Lubbock Preston Smith Intl,Lubbock,United States,-101.822778,33.663639,2.51,752.0,24407.0,9733.0,3.12,753.0,30397.0,9733.0
1988,LEX,Blue Grass,Lexington KY,United States,-84.605889,38.0365,4.53,276.0,38013.0,8397.0,4.12,835.0,34630.0,8397.0
1988,LFT,Lafayette Rgnl,Lafayette,United States,-91.987611,30.205278,2.58,203.0,3146.0,1219.0,3.2,195.0,3897.0,1219.0
1988,LGA,La Guardia,New York,United States,-73.872608,40.777245,6.53,517.0,748642.0,114698.0,6.87,1389.0,787638.0,114698.0
1988,LGB,Long Beach,Long Beach,United States,-118.151611,33.817722,7.25,327.0,62340.0,8599.0,7.14,485.0,61382.0,8599.0
1988,LIH,Lihue,Lihue,United States,-159.338958,21.975983,-1.17,182.0,-668.0,571.0,-1.89,178.0,-1080.0,571.0
1988,LIT,Adams Fld,Little Rock,United States,-92.224306,34.729444,4.0,342.0,60390.0,15084.0,3.68,340.0,55573.0,15084.0
1988,LNK,Lincoln,Lincoln,United States,-96.75925,40.850971,6.01,898.0,31923.0,5312.0,5.42,914.0,28809.0,5312.0
1988,LSE,La Crosse Municipal,La Crosse,United States,-91.256711,43.878986,4.69,239.0,8085.0,1725.0,2.18,219.0,3764.0,1725.0
1988,LYH,Lynchburg Regional Preston Glenn Field,Lynchburg,United States,-79.2004,37.3267,7.25,166.0,10895.0,1502.0,6.6,785.0,9915.0,1502.0
1988,MAF,Midland Intl,Midland,United States,-102.201914,31.942528,0.49,422.0,4541.0,9253.0,3.04,419.0,28128.0,9253.0
1988,MBS,Mbs Intl,Saginaw,United States,-84.079647,43.532913,3.88,383.0,13696.0,3529.0,2.4,359.0,8487.0,3529.0
1988,MCI,Kansas City Intl,Kansas City,United States,-94.713905,39.297606,7.44,442.0,334056.0,44876.0,6.85,1435.0,307372.0,44876.0
1988,MCO,Orlando Intl,Orlando,United States,-81.308994,28.429394,8.67,822.0,630541.0,72723.0,7.03,1378.0,510980.0,72723.0
1988,MDT,Harrisburg Intl,Harrisburg,United States,-76.763403,40.193494,7.57,344.0,50616.0,6683.0,5.55,352.0,37109.0,6683.0
1988,MDW,Chicago Midway Intl,Chicago,United States,-87.752417,41.785972,10.32,425.0,200728.0,19447.0,7.3,430.0,141914.0,19447.0
1988,MEM,Memphis Intl,Memphis,United States,-89.976667,35.042417,7.31,744.0,543771.0,74380.0,5.94,740.0,441820.0,74380.0
1988,MFE,Mc Allen Miller Intl,Mcallen,United States,-98.238611,26.175833,7.84,352.0,13245.0,1689.0,6.35,337.0,10721.0,1689.0
1988,MFR,Rogue Valley Intl Medford,Medford,United States,-122.8735,42.374228,7.04,562.0,15328.0,2178.0,9.65,200.0,21026.0,2178.0
1988,MGM,Montgomery Regional Airport ,MONTGOMERY,United States,-86.3939722,32.3006389,6.52,239.0,23605.0,3622.0,4.67,245.0,16915.0,3622.0
1988,MHT,Manchester Regional Airport,Manchester NH,United States,-71.435667,42.932556,9.17,500.0,25676.0,2800.0,7.73,498.0,21640.0,2800.0
1988,MIA,Miami Intl,Miami,United States,-80.290556,25.79325,7.49,1169.0,544343.0,72661.0,8.83,1375.0,641476.0,72661.0
1988,MKE,General Mitchell Intl,Milwaukee,United States,-87.896583,42.947222,5.4,428.0,125091.0,23148.0,4.54,1154.0,105174.0,23148.0
1988,MLB,Melbourne Intl,Melbourne,United States,-80.645258,28.102753,7.54,274.0,36261.0,4812.0,5.67,418.0,27302.0,4812.0
1988,MLI,Quad City Intl,Moline,United States,-90.507539,41.448528,5.29,273.0,29171.0,5510.0,3.79,289.0,20860.0,5510.0
1988,MLU,Monroe Rgnl,Monroe,United States,-92.037689,32.510864,6.71,249.0,17056.0,2540.0,5.79,252.0,14714.0,2540.0
1988,MOB,Mobile Rgnl,Mobile,United States,-88.242814,30.691231,5.58,295.0,45036.0,8067.0,4.22,1320.0,34022.0,8067.0
1988,MOT,Minot Intl,Minot,United States,-101.280333,48.259378,-0.76,510.0,-1442.0,1886.0,1.65,520.0,3119.0,1886.0
1988,MRY,Monterey Peninsula,Monterey,United States,-121.842944,36.587,2.67,162.0,6712.0,2518.0,3.47,166.0,8739.0,2518.0
1988,MSN,Dane Co Rgnl Truax Fld,Madison,United States,-89.337514,43.139858,4.92,806.0,27164.0,5526.0,3.93,810.0,21725.0,5526.0
1988,MSO,Missoula Intl,Missoula,United States,-114.090556,46.916306,4.48,276.0,11943.0,2665.0,4.7,488.0,12522.0,2665.0
1988,MSP,Minneapolis St Paul Intl,Minneapolis,United States,-93.221767,44.881956,8.87,835.0,845179.0,95265.0,7.6,835.0,723819.0,95265.0
1988,MSY,Louis Armstrong New Orleans Intl,New Orleans,United States,-90.258028,29.993389,5.79,473.0,236899.0,40943.0,5.82,548.0,238332.0,40943.0
1988,MYR,Myrtle Beach Intl,Myrtle Beach,United States,-78.928333,33.67975,6.06,359.0,23052.0,3803.0,4.87,361.0,18528.0,3803.0
1988,OAJ,Albert J Ellis,Jacksonville NC,United States,-77.612139,34.829164,4.26,141.0,7682.0,1805.0,4.35,1378.0,7855.0,1805.0
1988,OAK,Metropolitan Oakland Intl,Oakland,United States,-122.220722,37.721278,4.22,483.0,119662.0,28335.0,4.52,340.0,128206.0,28335.0
1988,OGG,Kahului,Kahului,United States,-156.430458,20.89865,4.37,914.0,15190.0,3474.0,3.04,872.0,10568.0,3474.0
1988,OKC,Will Rogers World,Oklahoma City,United States,-97.600733,35.393089,4.65,343.0,118818.0,25564.0,4.33,385.0,110687.0,25564.0
1988,OMA,Eppley Afld,Omaha,United States,-95.894069,41.303167,4.95,368.0,89620.0,18111.0,4.16,377.0,75338.0,18111.0
1988,OME,Nome,Nome,United States,-165.445247,64.512203,6.31,243.0,6250.0,990.0,4.42,235.0,4374.0,990.0
1988,ONT,Ontario Intl,Ontario,United States,-117.601194,34.056,5.26,414.0,182372.0,34640.0,5.3,1417.0,183652.0,34640.0
1988,ORD,Chicago Ohare Intl,Chicago,United States,-87.904842,41.978603,8.7,896.0,2361084.0,271494.0,9.28,1320.0,2520754.0,271494.0
1988,ORF,Norfolk Intl,Norfolk,United States,-76.201222,36.894611,7.85,395.0,212317.0,27048.0,6.1,870.0,165088.0,27048.0
1988,ORH,Worcester Regional Airport,Worcester,United States,-71.8757,42.2673,7.41,236.0,21194.0,2859.0,4.86,290.0,13885.0,2859.0
1988,OTZ,Ralph Wien Mem,Kotzebue,United States,-162.59855,66.884678,6.59,249.0,5973.0,906.0,4.77,245.0,4324.0,906.0
1988,PBI,Palm Beach Intl,West Palm Beach,United States,-80.095589,26.683161,7.12,730.0,184049.0,25841.0,6.85,1320.0,177000.0,25841.0
1988,PDX,Portland Intl,Portland,United States,-122.5975,45.588722,6.99,558.0,273636.0,39121.0,6.32,582.0,247168.0,39121.0
1988,PFN,Panama City Bay Co Intl,Panama City,United States,-85.682806,30.212083,6.12,217.0,4345.0,710.0,2.26,210.0,1606.0,710.0
1988,PHF,Newport News Williamsburg Intl,Newport News,United States,-76.492989,37.131894,6.63,232.0,7103.0,1071.0,4.18,156.0,4481.0,1071.0
1988,PHL,Philadelphia Intl,Philadelphia,United States,-75.241139,39.871944,7.91,863.0,664595.0,84069.0,8.32,1320.0,699490.0,84069.0
1988,PHX,Phoenix Sky Harbor Intl,Phoenix,United States,-112.011583,33.434278,5.97,643.0,724680.0,121444.0,6.0,1320.0,728676.0,121444.0
1988,PIA,Peoria Regional,Peoria,United States,-89.693258,40.664203,4.86,210.0,15564.0,3203.0,2.39,203.0,7663.0,3203.0
1988,PIE,St Petersburg Clearwater Intl,St. Petersburg,United States,-82.687389,27.910167,-2.05,103.0,-1575.0,768.0,-0.91,180.0,-696.0,768.0
1988,PIT,Pittsburgh Intl,Pittsburgh,United States,-80.232872,40.491467,10.19,484.0,1202682.0,118068.0,8.44,470.0,997038.0,118068.0
1988,PNS,Pensacola Rgnl,Pensacola,United States,-87.186611,30.473425,7.04,375.0,49988.0,7096.0,5.9,370.0,41856.0,7096.0
1988,PSC,Tri Cities Airport,Pasco,United States,-119.119,46.2647,1.98,226.0,3925.0,1987.0,3.53,202.0,7016.0,1987.0
1988,PSG,Petersburg James A. Johnson,Petersburg,United States,-132.945278,56.801667,10.09,245.0,6701.0,664.0,8.54,315.0,5668.0,664.0
1988,PSP,Palm Springs Intl,Palm Springs,United States,-116.506694,33.829667,8.66,382.0,44109.0,5092.0,7.99,304.0,40690.0,5092.0
1988,PUB,Pueblo Memorial,Pueblo,United States,-104.496572,38.289085,0.25,169.0,335.0,1342.0,2.15,202.0,2884.0,1342.0
1988,PVD,Theodore Francis Green State,Providence,United States,-71.420383,41.732581,8.07,336.0,102373.0,12678.0,5.97,382.0,75653.0,12678.0
1988,PWM,Portland Intl Jetport,Portland,United States,-70.309281,43.646161,7.8,379.0,56685.0,7264.0,6.8,343.0,49383.0,7264.0
1988,RAP,Rapid City Regional Airport,Rapid City,United States,-103.057222,44.045278,0.76,207.0,2122.0,2775.0,0.98,218.0,2729.0,2775.0
1988,RDD,Redding Muni,Redding,United States,-122.293389,40.509,25.0,122.0,475.0,19.0,22.37,93.0,425.0,19.0
1988,RDM,Roberts Fld,Redmond-Bend,United States,-121.149964,44.254066,6.24,147.0,4351.0,697.0,7.61,149.0,5306.0,697.0
1988,RDU,Raleigh Durham Intl,Raleigh-durham,United States,-78.787472,35.877639,4.61,505.0,282249.0,61264.0,5.23,1418.0,320658.0,61264.0
1988,RIC,Richmond Intl,Richmond,United States,-77.319667,37.505167,7.53,406.0,133604.0,17751.0,5.83,955.0,103560.0,17751.0
1988,RNO,Reno Tahoe Intl,Reno,United States,-119.768108,39.499108,5.91,340.0,115017.0,19472.0,6.07,330.0,118257.0,19472.0
1988,ROA,Roanoke Regional,Roanoke VA,United States,-79.975417,37.325472,7.31,322.0,34859.0,4767.0,4.8,319.0,22888.0,4767.0
1988,ROC,Greater Rochester Intl,Rochester,United States,-77.672389,43.118866,5.18,402.0,118606.0,22910.0,5.11,441.0,117081.0,22910.0
1988,RST,Rochester,Rochester,United States,-92.500014,43.908283,5.59,442.0,15596.0,2788.0,4.1,425.0,11421.0,2788.0
1988,RSW,Southwest Florida Intl,Fort Myers,United States,-81.755167,26.536167,5.53,330.0,98202.0,17766.0,5.06,450.0,89834.0,17766.0
1988,SAN,San Diego Intl,San Diego,United States,-117.189667,32.733556,6.5,422.0,397820.0,61207.0,6.66,640.0,407921.0,61207.0
1988,SAT,San Antonio Intl,San Antonio,United States,-98.469778,29.533694,2.48,400.0,84036.0,33937.0,4.07,1320.0,138015.0,33937.0
1988,SAV,Savannah Hilton Head Intl,Savannah,United States,-81.202139,32.127583,3.37,452.0,36887.0,10948.0,3.44,449.0,37615.0,10948.0
1988,SBA,Santa Barbara Muni,Santa Barbara,United States,-119.840372,34.426211,8.69,255.0,28401.0,3270.0,7.4,260.0,24204.0,3270.0
1988,SBN,South Bend Rgnl,South Bend,United States,-86.31725,41.708661,5.88,203.0,15977.0,2715.0,4.97,1310.0,13496.0,2715.0
1988,SCC,Deadhorse,Deadhorse,United States,-148.465167,70.19475,5.61,156.0,3125.0,557.0,2.17,155.0,1206.0,557.0
1988,SCK,Stockton Metropolitan,Stockton,United States,-121.238306,37.894167,-0.2,186.0,-287.0,1423.0,4.19,180.0,5960.0,1423.0
1988,SDF,Louisville International Airport,Louisville,United States,-85.7364989,38.1740858,6.14,351.0,145659.0,23719.0,4.44,1394.0,105382.0,23719.0
1988,SEA,Seattle Tacoma Intl,Seattle,United States,-122.309306,47.449,6.53,523.0,465208.0,71281.0,6.62,1374.0,472033.0,71281.0
1988,SFO,San Francisco Intl,San Francisco,United States,-122.374889,37.618972,7.5,755.0,987464.0,131614.0,8.43,1380.0,1109424.0,131614.0
1988,SGF,Springfield Branson Natl,Springfield,United States,-93.388639,37.245667,6.0,230.0,14457.0,2411.0,4.64,210.0,11190.0,2411.0
1988,SHV,Shreveport Rgnl,Shreveport,United States,-93.8256,32.446629,4.95,314.0,37507.0,7572.0,3.91,1370.0,29599.0,7572.0
1988,SIT,Sitka Rocky Gutierrez,Sitka,United States,-135.361611,57.047138,10.55,449.0,14467.0,1371.0,8.63,445.0,11831.0,1371.0
1988,SJC,Norman Y Mineta San Jose Intl,San Jose,United States,-121.929022,37.3626,3.26,679.0,151025.0,46274.0,4.16,1320.0,192334.0,46274.0
1988,SLC,Salt Lake City Intl,Salt Lake City,United States,-111.977772,40.788389,5.51,906.0,373177.0,67710.0,5.29,1439.0,358109.0,67710.0
1988,SMF,Sacramento Intl,Sacramento,United States,-121.590778,38.695417,2.81,518.0,77202.0,27494.0,3.58,540.0,98458.0,27494.0
1988,SNA,John Wayne Arpt Orange Co,Santa Ana,United States,-117.868222,33.675667,7.1,736.0,214934.0,30257.0,7.36,1320.0,222671.0,30257.0
1988,SRQ,Sarasota Bradenton Intl,Sarasota,United States,-82.554389,27.395444,4.44,322.0,52500.0,11820.0,4.56,319.0,53843.0,11820.0
1988,STL,Lambert St Louis Intl,St. Louis,United States,-90.370028,38.748697,7.65,610.0,974386.0,127429.0,8.03,1078.0,1022722.0,127429.0
1988,SUX,Sioux Gateway Col Bud Day Fld,Sioux City,United States,-96.384367,42.402603,3.12,369.0,10574.0,3389.0,3.81,371.0,12918.0,3389.0
1988,SYR,Syracuse Hancock Intl,Syracuse,United States,-76.106311,43.111187,5.83,770.0,186235.0,31937.0,6.14,1050.0,196068.0,31937.0
1988,TLH,Tallahassee Rgnl,Tallahassee,United States,-84.350333,30.396528,2.68,369.0,23319.0,8706.0,4.17,371.0,36342.0,8706.0
1988,TOL,Toledo,Toledo,United States,-83.807833,41.586806,5.01,401.0,18632.0,3720.0,3.49,212.0,12976.0,3720.0
1988,TPA,Tampa Intl,Tampa,United States,-82.53325,27.975472,6.92,560.0,416384.0,60204.0,6.11,1417.0,367959.0,60204.0
1988,TRI,Tri-Cities Regional Airport,BRISTOL,United States,-82.4074167,36.4752222,4.03,191.0,12915.0,3205.0,2.91,185.0,9319.0,3205.0
1988,TUL,Tulsa Intl,Tulsa,United States,-95.888111,36.198389,4.27,353.0,108648.0,25423.0,4.0,578.0,101769.0,25423.0
1988,TUS,Tucson Intl,Tucson,United States,-110.941028,32.116083,3.27,420.0,60166.0,18389.0,3.83,1320.0,70355.0,18389.0
1988,TVL,Lake Tahoe Airport,South Lake Tahoe,United States,-119.995278,38.893889,3.75,139.0,3592.0,959.0,4.87,143.0,4669.0,959.0
1988,TYS,Mc Ghee Tyson,Knoxville,United States,-83.994028,35.810972,5.28,439.0,47551.0,9003.0,3.68,1140.0,33105.0,9003.0
1988,UCA,Union Station,Utica,United States,-75.223333,43.104167,5.02,109.0,5071.0,1010.0,5.64,123.0,5701.0,1010.0
1988,VPS,Eglin Afb,Valparaiso,United States,-86.5254,30.48325,9.35,211.0,11801.0,1262.0,3.34,220.0,4212.0,1262.0
1988,WRG,Wrangell Airport,Wrangell,United States,-132.37,56.4843,7.46,283.0,4966.0,666.0,5.95,275.0,3965.0,666.0
1988,YAK,Yakutat,Yakutat,United States,-139.3937,59.3012,7.71,315.0,4922.0,638.0,5.17,315.0,3299.0,638.0
1988,YKM,Yakima Air Terminal McAllister Field,Yakima,United States,-120.544,46.5682,1.39,57.0,987.0,710.0,1.1,121.0,781.0,710.0
1988,YUM,Yuma Mcas Yuma Intl,Yuma,United States,-114.60598,32.656578,2.4,137.0,4244.0,1766.0,3.63,132.0,6409.0,1766.0
1989,ABE,Lehigh Valley Intl,Allentown,United States,-75.440806,40.652083,7.54,334.0,37377.0,4959.0,5.7,326.0,28256.0,4959.0
1989,ABI,Abilene Rgnl,Abilene,United States,-99.681897,32.411319,0.0,0.0,0.0,2.0,36.5,42.0,73.0,2.0
1989,ABQ,Albuquerque International Sunport,Albuquerque,United States,-106.6091944,35.0402222,7.54,366.0,232959.0,30882.0,6.65,359.0,205501.0,30882.0
1989,ACY,Atlantic City Intl,Atlantic City,United States,-74.577167,39.457583,5.49,172.0,3590.0,654.0,5.05,120.0,3304.0,654.0
1989,AGS,Augusta Rgnl At Bush Fld,Bush Field,United States,-81.9645,33.369944,6.4,214.0,19736.0,3086.0,5.54,1378.0,17111.0,3086.0
1989,ALB,Albany Intl,Albany,United States,-73.801692,42.748267,8.83,366.0,120484.0,13651.0,6.21,469.0,84717.0,13651.0
1989,AMA,Rick Husband Amarillo Intl,Amarillo,United States,-101.705931,35.219369,3.59,330.0,22795.0,6342.0,4.81,785.0,30505.0,6342.0
1989,ANC,Ted Stevens Anchorage Intl,Anchorage,United States,-149.996361,61.174361,8.75,869.0,117876.0,13479.0,7.67,1380.0,103323.0,13479.0
1989,APF,Naples Muni,Naples,United States,-81.775294,26.152619,4.68,64.0,533.0,114.0,2.9,63.0,331.0,114.0
1989,ATL,Hartsfield Jackson Atlanta Intl,Atlanta,United States,-84.428067,33.636719,8.19,1022.0,1835175.0,224036.0,7.39,1439.0,1654731.0,224036.0
1989,ATW,Appleton,Appleton,United States,-88.507576,44.257526,-0.22,116.0,-152.0,701.0,0.92,110.0,644.0,701.0
1989,AUS,Austin Bergstrom Intl,Austin,United States,-97.669889,30.194528,4.64,372.0,130988.0,28255.0,5.39,332.0,152336.0,28255.0
1989,AVL,Asheville Regional Airport,Asheville,United States,-82.541806,35.436194,10.9,192.0,25434.0,2334.0,7.37,191.0,17211.0,2334.0
1989,AVP,Wilkes Barre Scranton Intl,Scranton,United States,-75.723403,41.338478,6.78,279.0,13436.0,1983.0,5.15,267.0,10213.0,1983.0
1989,AZO,Kalamazoo,Kalamazoo,United States,-85.552058,42.234875,4.34,371.0,14954.0,3446.0,3.16,370.0,10881.0,3446.0
1989,BDL,Bradley Intl,Windsor Locks,United States,-72.683222,41.938889,7.82,340.0,228024.0,29154.0,6.39,1320.0,186324.0,29154.0
1989,BET,Bethel,Bethel,United States,-161.838,60.779778,6.68,248.0,3836.0,574.0,7.33,250.0,4207.0,574.0
1989,BFL,Meadows Fld,Bakersfield,United States,-119.05677,35.433598,3.6,261.0,3453.0,958.0,3.66,261.0,3508.0,958.0
1989,BGM,Greater Binghamton Edwin A Link Fld,Binghamton,United States,-75.979839,42.208689,8.25,233.0,17332.0,2102.0,5.35,229.0,11244.0,2102.0
1989,BGR,Bangor Intl,Bangor,United States,-68.828139,44.807444,9.39,272.0,19733.0,2102.0,7.69,687.0,16160.0,2102.0
1989,BHM,Birmingham Intl,Birmingham,United States,-86.75355,33.562942,4.66,927.0,81958.0,17597.0,4.4,942.0,77383.0,17597.0
1989,BIL,Billings Logan International Airport,Billings,United States,-108.537654,45.80921,4.91,349.0,25862.0,5264.0,4.74,346.0,24962.0,5264.0
1989,BIS,Bismarck Municipal Airport,Bismarck,United States,-100.757931,46.775842,2.15,1001.0,8676.0,4039.0,2.36,1415.0,9517.0,4039.0
1989,BLI,Bellingham Intl,Bellingham,United States,-122.537528,48.792694,6.29,332.0,10098.0,1605.0,5.89,335.0,9446.0,1605.0
1989,BNA,Nashville Intl,Nashville,United States,-86.678194,36.124472,4.07,771.0,237072.0,58219.0,5.98,1036.0,348000.0,58219.0
1989,BOI,Boise Air Terminal,Boise,United States,-116.222861,43.564361,6.74,420.0,45223.0,6707.0,6.27,1280.0,42028.0,6707.0
1989,BOS,General Edward Lawrence Logan Intl,Boston,United States,-71.005181,42.364347,11.54,411.0,1056929.0,91600.0,9.46,444.0,866486.0,91600.0
1989,BTM,Bert Mooney Airport,Butte,United States,-112.497472,45.954806,4.66,298.0,3284.0,705.0,2.95,296.0,2082.0,705.0
1989,BTR,Baton Rouge Metro Ryan Fld,Baton Rouge,United States,-91.149639,30.533167,6.65,425.0,57733.0,8684.0,5.38,426.0,46692.0,8684.0
1989,BTV,Burlington Intl,Burlington,United States,-73.153278,44.471861,9.58,470.0,64814.0,6765.0,8.45,467.0,57144.0,6765.0
1989,BUF,Buffalo Niagara Intl,Buffalo,United States,-78.732167,42.940525,9.83,495.0,257844.0,26227.0,7.79,470.0,204423.0,26227.0
1989,BUR,Bob Hope,Burbank,United States,-118.358667,34.200667,4.39,244.0,92465.0,21081.0,5.62,251.0,118558.0,21081.0
1989,BWI,Baltimore Washington Intl,Baltimore,United States,-76.668333,39.175361,13.18,479.0,932755.0,70757.0,12.79,1409.0,904748.0,70757.0
1989,BZN,Gallatin Field,Bozeman,United States,-111.160151,45.777643,4.52,288.0,17075.0,3774.0,4.44,292.0,16766.0,3774.0
1989,CAE,Columbia Metropolitan,Columbia,United States,-81.119528,33.938833,8.3,391.0,74340.0,8958.0,7.25,406.0,64980.0,8958.0
1989,CAK,Akron Canton Regional Airport,Akron,United States,-81.4421944,40.9160833,6.21,407.0,19257.0,3100.0,5.65,393.0,17524.0,3100.0
1989,CCR,Buchanan Field Airport,Concord,United States,-122.0568889,37.9896667,1.43,229.0,1837.0,1285.0,3.86,234.0,4956.0,1285.0
1989,CDV,Merle K Mudhole Smith,Cordova,United States,-145.477556,60.491778,8.62,283.0,5839.0,677.0,8.22,280.0,5568.0,677.0
1989,CHA,Lovell Fld,Chattanooga,United States,-85.203808,35.035278,4.92,255.0,24595.0,4995.0,3.75,254.0,18738.0,4995.0
1989,CHO,Charlottesville-Albemarle,Charlottesville VA,United States,-78.452861,38.138639,10.79,310.0,17767.0,1647.0,7.54,263.0,12426.0,1647.0
1989,CHS,Charleston Afb Intl,Charleston,United States,-80.040528,32.898647,7.07,336.0,81380.0,11507.0,6.62,1400.0,76122.0,11507.0
1989,CID,Cedar Rapids,Cedar Rapids,United States,-91.710806,41.884694,5.1,326.0,27920.0,5479.0,4.17,545.0,22830.0,5479.0
1989,CLE,Cleveland Hopkins Intl,Cleveland,United States,-81.849794,41.411689,8.63,483.0,533933.0,61875.0,8.0,1320.0,494702.0,61875.0
1989,CLT,Charlotte Douglas Intl,Charlotte,United States,-80.943139,35.214,15.24,517.0,1669386.0,109552.0,15.02,1379.0,1645797.0,109552.0
1989,CMH,Port Columbus Intl,Columbus,United States,-82.891889,39.997972,7.94,910.0,203501.0,25623.0,6.75,910.0,172966.0,25623.0
1989,CMI,Champaign,Champaign,United States,-88.278056,40.03925,7.39,241.0,11628.0,1573.0,5.44,239.0,8553.0,1573.0
1989,COS,City Of Colorado Springs Muni,Colorado Springs,United States,-104.700778,38.805805,3.8,428.0,39581.0,10412.0,3.3,415.0,34401.0,10412.0
1989,CPR,Natrona Co Intl,Casper,United States,-106.464417,42.908,2.57,92.0,2768.0,1078.0,0.71,144.0,768.0,1078.0
1989,CRP,Corpus Christi Intl,Corpus Christi,United States,-97.501222,27.770361,4.74,710.0,27900.0,5880.0,4.53,705.0,26663.0,5880.0
1989,CRW,Yeager,Charleston,United States,-81.593189,38.373147,10.2,239.0,42233.0,4141.0,7.95,233.0,32918.0,4141.0
1989,CSG,Columbus Metropolitan Airport,Columbus,United States,-84.9388611,32.5163333,6.55,186.0,6574.0,1004.0,3.91,180.0,3928.0,1004.0
1989,CVG,Cincinnati Northern Kentucky Intl,Cincinnati,United States,-84.667822,39.048836,9.51,970.0,570373.0,59945.0,6.61,955.0,396117.0,59945.0
1989,DAB,Daytona Beach Intl,Daytona Beach,United States,-81.058056,29.179917,3.88,319.0,23208.0,5974.0,4.79,330.0,28592.0,5974.0
1989,DAL,Dallas Love Fld,Dallas,United States,-96.851778,32.847111,5.29,263.0,184905.0,34963.0,6.55,261.0,229133.0,34963.0
1989,DAY,James M Cox Dayton Intl,Dayton,United States,-84.219375,39.902375,12.48,329.0,443841.0,35577.0,12.17,1015.0,432928.0,35577.0
1989,DCA,Ronald Reagan Washington Natl,Washington,United States,-77.037722,38.852083,8.91,811.0,737536.0,82820.0,7.48,1000.0,619855.0,82820.0
1989,DEN,Denver Intl,Denver,United States,-104.673178,39.861656,6.25,732.0,864887.0,138407.0,8.66,735.0,1198078.0,138407.0
1989,DET,Coleman A Young Muni,Detroit,United States,-83.009861,42.409195,12.13,296.0,69287.0,5712.0,9.15,258.0,52263.0,5712.0
1989,DFW,Dallas Fort Worth Intl,Dallas-Fort Worth,United States,-97.037997,32.896828,7.97,764.0,1820851.0,228360.0,8.02,1438.0,1832522.0,228360.0
1989,DLH,Duluth Intl,Duluth,United States,-92.193649,46.842091,4.53,365.0,6877.0,1518.0,2.82,340.0,4287.0,1518.0
1989,DRO,Durango La Plata Co,Durango,United States,-107.75377,37.151516,8.25,99.0,6195.0,751.0,5.61,95.0,4212.0,751.0
1989,DSM,Des Moines Intl,Des Moines,United States,-93.663083,41.533972,6.94,347.0,85343.0,12304.0,5.27,352.0,64900.0,12304.0
1989,DTW,Detroit Metro Wayne Co,Detroit,United States,-83.353389,42.212444,8.93,719.0,1034181.0,115873.0,7.2,1320.0,834056.0,115873.0
1989,EAU,Chippewa Valley Regional Airport,Eau Claire,United States,-91.4843,44.8658,2.01,125.0,855.0,426.0,-2.01,97.0,-858.0,426.0
1989,EGE,Eagle Co Rgnl,Vail,United States,-106.917694,39.642556,40.27,91.0,443.0,11.0,32.36,95.0,356.0,11.0
1989,ELM,Elmira Corning Rgnl,Elmira,United States,-76.891611,42.159889,7.22,292.0,13808.0,1912.0,5.09,293.0,9729.0,1912.0
1989,ELP,El Paso Intl,El Paso,United States,-106.377583,31.80725,6.31,715.0,156889.0,24865.0,6.49,710.0,161350.0,24865.0
1989,ERI,Erie Intl Tom Ridge Fld,Erie,United States,-80.176217,42.082022,8.75,236.0,18550.0,2121.0,7.54,1646.0,15985.0,2121.0
1989,EUG,Mahlon Sweet Fld,Eugene,United States,-123.211972,44.124583,5.62,283.0,24225.0,4307.0,6.32,304.0,27217.0,4307.0
1989,EVV,Evansville Regional,Evansville,United States,-87.532364,38.036997,6.44,314.0,15727.0,2443.0,5.11,313.0,12489.0,2443.0
1989,EWR,Newark Liberty Intl,Newark,United States,-74.168667,40.6925,10.78,824.0,1226916.0,113843.0,10.59,885.0,1205476.0,113843.0
1989,EYW,Key West Intl,Key West,United States,-81.759556,24.556111,9.33,219.0,19819.0,2125.0,8.09,219.0,17197.0,2125.0
1989,FAI,Fairbanks Intl,Fairbanks,United States,-147.856267,64.815114,8.89,861.0,29603.0,3330.0,5.38,1380.0,17927.0,3330.0
1989,FAR,Hector International Airport,Fargo,United States,-96.8157639,46.92065,2.22,498.0,6202.0,2788.0,2.31,496.0,6435.0,2788.0
1989,FAT,Fresno Yosemite Intl,Fresno,United States,-119.71814,36.776194,5.35,426.0,28225.0,5271.0,6.07,425.0,31983.0,5271.0
1989,FAY,Fayetteville Regional Grannis Field,Fayetteville,United States,-78.8803,34.9912,5.28,343.0,17016.0,3225.0,5.35,1417.0,17254.0,3225.0
1989,FCA,Glacier Park Intl,Kalispell,United States,-114.256,48.310472,8.26,425.0,5923.0,717.0,7.62,422.0,5464.0,717.0
1989,FLG,Flagstaff Pulliam Airport,Flagstaff,United States,-111.6692392,35.140318,6.9,200.0,16868.0,2445.0,4.2,187.0,10273.0,2445.0
1989,FLL,Fort Lauderdale Hollywood Intl,Fort Lauderdale,United States,-80.15275,26.072583,10.36,707.0,376153.0,36317.0,9.72,1320.0,353077.0,36317.0
1989,FNT,Bishop International,Flint,United States,-83.743629,42.965424,9.19,191.0,10743.0,1169.0,8.25,181.0,9650.0,1169.0
1989,FSD,Sioux Falls,Sioux Falls,United States,-96.741914,43.582014,5.1,332.0,27857.0,5464.0,5.16,1435.0,28205.0,5464.0
1989,FWA,Fort Wayne,Fort Wayne,United States,-85.195139,40.978472,5.5,307.0,26133.0,4753.0,3.61,302.0,17143.0,4753.0
1989,GCN,Grand Canyon National Park Airport,Grand Canyon,United States,-112.1469722,35.9523611,3.16,128.0,4364.0,1383.0,3.01,121.0,4157.0,1383.0
1989,GEG,Spokane Intl,Spokane,United States,-117.533833,47.619861,7.57,333.0,78911.0,10429.0,6.93,343.0,72249.0,10429.0
1989,GFK,Grand Forks Intl,Grand Forks,United States,-97.176111,47.949256,1.4,378.0,1606.0,1146.0,1.64,318.0,1882.0,1146.0
1989,GJT,Grand Junction Regional,Grand Junction,United States,-108.526735,39.122413,5.8,222.0,8203.0,1415.0,3.73,190.0,5271.0,1415.0
1989,GNV,Gainesville Rgnl,Gainesville,United States,-82.271778,29.690056,9.26,268.0,26750.0,2890.0,7.12,255.0,20564.0,2890.0
1989,GPT,Gulfport-Biloxi,Gulfport,United States,-89.070111,30.407278,4.52,409.0,4674.0,1035.0,2.97,425.0,3075.0,1035.0
1989,GRB,Austin Straubel Intl,Green Bay,United States,-88.129589,44.485072,2.47,370.0,7203.0,2916.0,1.4,375.0,4069.0,2916.0
1989,GRR,Gerald R Ford Intl,Grand Rapids,United States,-85.522806,42.880833,10.1,454.0,101494.0,10044.0,6.56,732.0,65917.0,10044.0
1989,GSO,Piedmont Triad,Greensboro,United States,-79.937306,36.09775,11.45,358.0,217388.0,18994.0,9.12,750.0,173296.0,18994.0
1989,GSP,Greenville-Spartanburg International,Greenville,United States,-82.218889,34.895556,5.08,411.0,43944.0,8652.0,3.77,410.0,32593.0,8652.0
1989,GST,Gustavus Airport,Gustavus,United States,-135.707,58.4253,13.85,144.0,1205.0,87.0,9.59,145.0,834.0,87.0
1989,GTF,Great Falls Intl,Great Falls,United States,-111.370689,47.482,2.9,243.0,9257.0,3192.0,2.57,296.0,8199.0,3192.0
1989,GUC,Gunnison - Crested Butte,Gunnison,United States,-106.933056,38.533889,23.7,970.0,6139.0,259.0,12.42,958.0,3218.0,259.0
1989,HDN,Yampa Valley,Hayden,United States,-107.21766,40.481181,19.9,1356.0,12558.0,631.0,13.52,1373.0,8533.0,631.0
1989,HLN,Helena Rgnl,Helena,United States,-111.98275,46.606806,10.09,214.0,10826.0,1073.0,7.67,216.0,8235.0,1073.0
1989,HNL,Honolulu Intl,Honolulu,United States,-157.922428,21.318681,6.56,944.0,113056.0,17223.0,8.64,931.0,148813.0,17223.0
1989,HOU,William P Hobby,Houston,United States,-95.278889,29.645419,5.7,423.0,318986.0,55931.0,7.17,1320.0,401237.0,55931.0
1989,HPN,Westchester Co,White Plains,United States,-73.707575,41.066959,9.56,452.0,21408.0,2240.0,8.16,444.0,18289.0,2240.0
1989,HRL,Valley Intl,Harlingen,United States,-97.654389,26.2285,3.27,582.0,21483.0,6560.0,4.14,581.0,27135.0,6560.0
1989,HSV,Huntsville International Airport-Carl T Jones Field,Huntsville,United States,-86.7750556,34.6371944,3.75,379.0,27147.0,7239.0,4.01,374.0,29055.0,7239.0
1989,HTS,Tri State Milton J Ferguson Field,Huntington,United States,-82.558,38.3667,8.75,305.0,19839.0,2268.0,7.22,298.0,16365.0,2268.0
1989,IAD,Washington Dulles Intl,Washington,United States,-77.455811,38.944533,9.24,458.0,469733.0,50832.0,8.19,764.0,416302.0,50832.0
1989,IAH,George Bush Intercontinental,Houston,United States,-95.341442,29.984433,3.69,804.0,323828.0,87830.0,6.64,1320.0,583174.0,87830.0
1989,ICT,Wichita Mid Continent,Wichita,United States,-97.433056,37.649944,6.59,464.0,82223.0,12483.0,5.28,476.0,65940.0,12483.0
1989,IDA,Idaho Falls Rgnl,Idaho Falls,United States,-112.07075,43.514556,5.42,208.0,11088.0,2044.0,4.27,348.0,8718.0,2044.0
1989,ILM,Wilmington Intl,Wilmington,United States,-77.902569,34.270615,9.47,265.0,29720.0,3139.0,7.15,259.0,22437.0,3139.0
1989,IND,Indianapolis Intl,Indianapolis,United States,-86.294383,39.717331,8.78,357.0,356157.0,40567.0,7.19,879.0,291815.0,40567.0
1989,ISO,Kinston Regional Jetport,Kinston,United States,-77.608889,35.331389,6.42,370.0,6655.0,1037.0,4.86,358.0,5044.0,1037.0
1989,ISP,Long Island Mac Arthur,Islip,United States,-73.100222,40.79525,6.25,344.0,41721.0,6673.0,5.43,315.0,36229.0,6673.0
1989,ITH,Ithaca Tompkins Rgnl,Ithaca,United States,-76.458444,42.491028,7.69,369.0,9633.0,1252.0,3.42,279.0,4284.0,1252.0
1989,JAC,Jackson Hole Airport,Jacksn Hole,United States,-110.73775,43.607333333,6.29,174.0,10502.0,1669.0,5.23,171.0,8721.0,1669.0
1989,JAN,Jackson Evers Intl,Jackson,United States,-90.075889,32.311167,5.09,435.0,45636.0,8961.0,4.46,423.0,39961.0,8961.0
1989,JAX,Jacksonville Intl,Jacksonville,United States,-81.687861,30.494056,7.11,644.0,162014.0,22793.0,7.41,1379.0,168983.0,22793.0
1989,JFK,John F Kennedy Intl,New York,United States,-73.778925,40.639751,14.76,656.0,717343.0,48606.0,13.31,647.0,646722.0,48606.0
1989,JNU,Juneau Intl,Juneau,United States,-134.576278,58.354972,11.67,318.0,41784.0,3580.0,9.95,500.0,35638.0,3580.0
1989,KOA,Kona Intl At Keahole,Kona,United States,-156.045631,19.738767,3.55,250.0,2460.0,692.0,4.63,252.0,3203.0,692.0
1989,KTN,Ketchikan Intl,Ketchikan,United States,-131.71375,55.355556,9.83,852.0,21360.0,2172.0,9.7,800.0,21066.0,2172.0
1989,LAN,Capital City,Lansing,United States,-84.587357,42.7787,5.8,346.0,18510.0,3194.0,4.09,348.0,13077.0,3194.0
1989,LAS,Mc Carran Intl,Las Vegas,United States,-115.15225,36.080056,4.3,448.0,336944.0,78382.0,5.46,404.0,427689.0,78382.0
1989,LAX,Los Angeles Intl,Los Angeles,United States,-118.408075,33.942536,6.28,599.0,1026141.0,163487.0,8.19,1415.0,1339663.0,163487.0
1989,LBB,Lubbock Preston Smith Intl,Lubbock,United States,-101.822778,33.663639,3.43,311.0,31909.0,9316.0,4.11,250.0,38259.0,9316.0
1989,LEX,Blue Grass,Lexington KY,United States,-84.605889,38.0365,6.97,213.0,52270.0,7497.0,4.61,211.0,34548.0,7497.0
1989,LFT,Lafayette Rgnl,Lafayette,United States,-91.987611,30.205278,1.27,237.0,1560.0,1231.0,2.96,233.0,3644.0,1231.0
1989,LGA,La Guardia,New York,United States,-73.872608,40.777245,13.1,979.0,1370246.0,104583.0,10.55,1320.0,1103726.0,104583.0
1989,LGB,Long Beach,Long Beach,United States,-118.151611,33.817722,4.01,286.0,46583.0,11625.0,5.38,393.0,62538.0,11625.0
1989,LIH,Lihue,Lihue,United States,-159.338958,21.975983,-0.48,150.0,-165.0,347.0,-0.45,150.0,-155.0,347.0
1989,LIT,Adams Fld,Little Rock,United States,-92.224306,34.729444,5.44,299.0,81690.0,15008.0,5.07,385.0,76048.0,15008.0
1989,LNK,Lincoln,Lincoln,United States,-96.75925,40.850971,8.57,233.0,40839.0,4765.0,6.78,241.0,32327.0,4765.0
1989,LSE,La Crosse Municipal,La Crosse,United States,-91.256711,43.878986,4.3,177.0,5751.0,1336.0,0.9,167.0,1200.0,1336.0
1989,LYH,Lynchburg Regional Preston Glenn Field,Lynchburg,United States,-79.2004,37.3267,8.39,243.0,9343.0,1114.0,4.46,234.0,4971.0,1114.0
1989,MAF,Midland Intl,Midland,United States,-102.201914,31.942528,2.24,268.0,18543.0,8288.0,4.36,263.0,36152.0,8288.0
1989,MBS,Mbs Intl,Saginaw,United States,-84.079647,43.532913,8.04,458.0,30894.0,3844.0,4.75,462.0,18276.0,3844.0
1989,MCI,Kansas City Intl,Kansas City,United States,-94.713905,39.297606,8.24,485.0,315430.0,38296.0,7.13,479.0,272898.0,38296.0
1989,MCO,Orlando Intl,Orlando,United States,-81.308994,28.429394,8.24,488.0,582084.0,70669.0,7.75,1320.0,547771.0,70669.0
1989,MDT,Harrisburg Intl,Harrisburg,United States,-76.763403,40.193494,9.36,453.0,65263.0,6976.0,7.5,447.0,52330.0,6976.0
1989,MDW,Chicago Midway Intl,Chicago,United States,-87.752417,41.785972,9.15,305.0,201087.0,21965.0,8.17,565.0,179512.0,21965.0
1989,MEM,Memphis Intl,Memphis,United States,-89.976667,35.042417,5.12,857.0,341837.0,66790.0,5.6,862.0,373755.0,66790.0
1989,MFE,Mc Allen Miller Intl,Mcallen,United States,-98.238611,26.175833,7.05,265.0,12132.0,1721.0,4.1,265.0,7055.0,1721.0
1989,MFR,Rogue Valley Intl Medford,Medford,United States,-122.8735,42.374228,7.93,402.0,17028.0,2148.0,10.13,411.0,21755.0,2148.0
1989,MGM,Montgomery Regional Airport ,MONTGOMERY,United States,-86.3939722,32.3006389,7.51,210.0,19456.0,2590.0,6.15,215.0,15921.0,2590.0
1989,MHT,Manchester Regional Airport,Manchester NH,United States,-71.435667,42.932556,11.34,367.0,38740.0,3417.0,9.19,328.0,31388.0,3417.0
1989,MIA,Miami Intl,Miami,United States,-80.290556,25.79325,8.84,774.0,594724.0,67294.0,9.11,1417.0,613140.0,67294.0
1989,MKE,General Mitchell Intl,Milwaukee,United States,-87.896583,42.947222,8.47,418.0,205354.0,24232.0,5.77,420.0,139722.0,24232.0
1989,MLB,Melbourne Intl,Melbourne,United States,-80.645258,28.102753,3.83,338.0,17760.0,4637.0,4.34,275.0,20143.0,4637.0
1989,MLI,Quad City Intl,Moline,United States,-90.507539,41.448528,4.29,592.0,18481.0,4306.0,4.2,581.0,18094.0,4306.0
1989,MLU,Monroe Rgnl,Monroe,United States,-92.037689,32.510864,7.12,208.0,17641.0,2478.0,6.55,207.0,16232.0,2478.0
1989,MOB,Mobile Rgnl,Mobile,United States,-88.242814,30.691231,5.83,599.0,40605.0,6961.0,4.76,610.0,33144.0,6961.0
1989,MOT,Minot Intl,Minot,United States,-101.280333,48.259378,0.22,260.0,425.0,1909.0,0.56,210.0,1060.0,1909.0
1989,MRY,Monterey Peninsula,Monterey,United States,-121.842944,36.587,6.72,281.0,14501.0,2157.0,6.58,277.0,14185.0,2157.0
1989,MSN,Dane Co Rgnl Truax Fld,Madison,United States,-89.337514,43.139858,7.14,388.0,43346.0,6072.0,4.39,370.0,26668.0,6072.0
1989,MSO,Missoula Intl,Missoula,United States,-114.090556,46.916306,4.39,274.0,10999.0,2504.0,4.74,235.0,11869.0,2504.0
1989,MSP,Minneapolis St Paul Intl,Minneapolis,United States,-93.221767,44.881956,6.92,911.0,685690.0,99072.0,6.68,925.0,662160.0,99072.0
1989,MSY,Louis Armstrong New Orleans Intl,New Orleans,United States,-90.258028,29.993389,5.4,943.0,219675.0,40689.0,5.88,1320.0,239430.0,40689.0
1989,MYR,Myrtle Beach Intl,Myrtle Beach,United States,-78.928333,33.67975,8.21,457.0,34808.0,4241.0,6.13,229.0,26013.0,4241.0
1989,OAJ,Albert J Ellis,Jacksonville NC,United States,-77.612139,34.829164,6.32,284.0,7990.0,1264.0,6.35,279.0,8032.0,1264.0
1989,OAK,Metropolitan Oakland Intl,Oakland,United States,-122.220722,37.721278,6.05,457.0,170309.0,28156.0,5.95,1320.0,167594.0,28156.0
1989,OGG,Kahului,Kahului,United States,-156.430458,20.89865,4.7,884.0,15395.0,3278.0,5.2,874.0,17032.0,3278.0
1989,OKC,Will Rogers World,Oklahoma City,United States,-97.600733,35.393089,5.81,335.0,138173.0,23783.0,5.26,267.0,125044.0,23783.0
1989,OMA,Eppley Afld,Omaha,United States,-95.894069,41.303167,6.71,731.0,117808.0,17566.0,5.59,756.0,98244.0,17566.0
1989,OME,Nome,Nome,United States,-165.445247,64.512203,9.22,305.0,8731.0,947.0,9.28,310.0,8792.0,947.0
1989,ONT,Ontario Intl,Ontario,United States,-117.601194,34.056,5.26,531.0,190959.0,36306.0,6.52,1419.0,236739.0,36306.0
1989,ORD,Chicago Ohare Intl,Chicago,United States,-87.904842,41.978603,13.11,800.0,3424330.0,261259.0,12.84,1320.0,3355192.0,261259.0
1989,ORF,Norfolk Intl,Norfolk,United States,-76.201222,36.894611,11.32,470.0,275508.0,24334.0,9.02,1320.0,219520.0,24334.0
1989,ORH,Worcester Regional Airport,Worcester,United States,-71.8757,42.2673,9.46,229.0,27926.0,2951.0,4.44,225.0,13089.0,2951.0
1989,OTZ,Ralph Wien Mem,Kotzebue,United States,-162.59855,66.884678,7.77,320.0,6798.0,875.0,7.39,315.0,6467.0,875.0
1989,PBI,Palm Beach Intl,West Palm Beach,United States,-80.095589,26.683161,7.96,467.0,207491.0,26082.0,8.2,482.0,213810.0,26082.0
1989,PDX,Portland Intl,Portland,United States,-122.5975,45.588722,6.47,967.0,263916.0,40776.0,6.62,926.0,269977.0,40776.0
1989,PFN,Panama City Bay Co Intl,Panama City,United States,-85.682806,30.212083,7.8,28.0,117.0,15.0,0.73,15.0,11.0,15.0
1989,PHF,Newport News Williamsburg Intl,Newport News,United States,-76.492989,37.131894,7.96,226.0,8514.0,1070.0,4.86,188.0,5200.0,1070.0
1989,PHL,Philadelphia Intl,Philadelphia,United States,-75.241139,39.871944,10.9,495.0,821927.0,75422.0,10.44,501.0,787447.0,75422.0
1989,PHX,Phoenix Sky Harbor Intl,Phoenix,United States,-112.011583,33.434278,7.73,541.0,1006229.0,130180.0,7.69,1412.0,1000921.0,130180.0
1989,PIA,Peoria Regional,Peoria,United States,-89.693258,40.664203,5.85,334.0,12114.0,2070.0,4.36,328.0,9025.0,2070.0
1989,PIE,St Petersburg Clearwater Intl,St. Petersburg,United States,-82.687389,27.910167,2.63,182.0,702.0,267.0,2.22,183.0,592.0,267.0
1989,PIT,Pittsburgh Intl,Pittsburgh,United States,-80.232872,40.491467,12.1,455.0,1374716.0,113650.0,11.7,457.0,1329370.0,113650.0
1989,PNS,Pensacola Rgnl,Pensacola,United States,-87.186611,30.473425,7.89,439.0,55233.0,6996.0,7.03,675.0,49215.0,6996.0
1989,PSC,Tri Cities Airport,Pasco,United States,-119.119,46.2647,5.42,258.0,7063.0,1302.0,6.09,270.0,7927.0,1302.0
1989,PSG,Petersburg James A. Johnson,Petersburg,United States,-132.945278,56.801667,9.18,201.0,5867.0,639.0,10.63,197.0,6792.0,639.0
1989,PSP,Palm Springs Intl,Palm Springs,United States,-116.506694,33.829667,6.99,341.0,40592.0,5809.0,7.65,342.0,44439.0,5809.0
1989,PUB,Pueblo Memorial,Pueblo,United States,-104.496572,38.289085,0.1,205.0,171.0,1634.0,1.97,207.0,3222.0,1634.0
1989,PVD,Theodore Francis Green State,Providence,United States,-71.420383,41.732581,9.79,422.0,128970.0,13179.0,7.56,400.0,99630.0,13179.0
1989,PWM,Portland Intl Jetport,Portland,United States,-70.309281,43.646161,10.03,440.0,84975.0,8474.0,8.62,417.0,73036.0,8474.0
1989,RAP,Rapid City Regional Airport,Rapid City,United States,-103.057222,44.045278,2.64,212.0,6425.0,2436.0,1.91,208.0,4655.0,2436.0
1989,RDM,Roberts Fld,Redmond-Bend,United States,-121.149964,44.254066,3.51,106.0,1121.0,319.0,3.57,113.0,1138.0,319.0
1989,RDU,Raleigh Durham Intl,Raleigh-durham,United States,-78.787472,35.877639,6.68,992.0,403789.0,60458.0,7.23,1417.0,437023.0,60458.0
1989,RIC,Richmond Intl,Richmond,United States,-77.319667,37.505167,10.65,331.0,171021.0,16051.0,8.55,435.0,137262.0,16051.0
1989,RNO,Reno Tahoe Intl,Reno,United States,-119.768108,39.499108,5.78,682.0,103618.0,17929.0,5.99,688.0,107428.0,17929.0
1989,ROA,Roanoke Regional,Roanoke VA,United States,-79.975417,37.325472,11.86,277.0,46436.0,3915.0,8.67,282.0,33924.0,3915.0
1989,ROC,Greater Rochester Intl,Rochester,United States,-77.672389,43.118866,10.14,364.0,214879.0,21181.0,8.4,360.0,177843.0,21181.0
1989,RST,Rochester,Rochester,United States,-92.500014,43.908283,5.63,311.0,16403.0,2913.0,4.25,282.0,12384.0,2913.0
1989,RSW,Southwest Florida Intl,Fort Myers,United States,-81.755167,26.536167,6.28,431.0,107070.0,17045.0,6.04,397.0,102986.0,17045.0
1989,SAN,San Diego Intl,San Diego,United States,-117.189667,32.733556,7.65,752.0,469175.0,61349.0,8.28,696.0,507828.0,61349.0
1989,SAT,San Antonio Intl,San Antonio,United States,-98.469778,29.533694,5.49,394.0,183557.0,33451.0,5.7,399.0,190823.0,33451.0
1989,SAV,Savannah Hilton Head Intl,Savannah,United States,-81.202139,32.127583,4.62,368.0,43207.0,9351.0,4.14,364.0,38694.0,9351.0
1989,SBA,Santa Barbara Muni,Santa Barbara,United States,-119.840372,34.426211,7.85,332.0,27224.0,3470.0,8.93,397.0,30983.0,3470.0
1989,SBN,South Bend Rgnl,South Bend,United States,-86.31725,41.708661,6.18,235.0,16743.0,2711.0,5.84,220.0,15834.0,2711.0
1989,SCC,Deadhorse,Deadhorse,United States,-148.465167,70.19475,4.47,440.0,2362.0,529.0,4.35,443.0,2301.0,529.0
1989,SCK,Stockton Metropolitan,Stockton,United States,-121.238306,37.894167,4.67,358.0,4464.0,955.0,4.14,376.0,3950.0,955.0
1989,SDF,Louisville International Airport,Louisville,United States,-85.7364989,38.1740858,6.93,365.0,141664.0,20446.0,5.54,1375.0,113257.0,20446.0
1989,SEA,Seattle Tacoma Intl,Seattle,United States,-122.309306,47.449,8.6,870.0,634447.0,73754.0,7.91,876.0,583490.0,73754.0
1989,SFO,San Francisco Intl,San Francisco,United States,-122.374889,37.618972,7.2,757.0,909651.0,126406.0,9.99,1380.0,1263157.0,126406.0
1989,SGF,Springfield Branson Natl,Springfield,United States,-93.388639,37.245667,4.26,285.0,9416.0,2212.0,5.83,294.0,12896.0,2212.0
1989,SHV,Shreveport Rgnl,Shreveport,United States,-93.8256,32.446629,5.58,394.0,40217.0,7209.0,4.74,1375.0,34154.0,7209.0
1989,SIT,Sitka Rocky Gutierrez,Sitka,United States,-135.361611,57.047138,11.42,355.0,15468.0,1354.0,10.09,355.0,13661.0,1354.0
1989,SJC,Norman Y Mineta San Jose Intl,San Jose,United States,-121.929022,37.3626,4.28,423.0,195140.0,45582.0,4.32,1320.0,196971.0,45582.0
1989,SLC,Salt Lake City Intl,Salt Lake City,United States,-111.977772,40.788389,7.09,472.0,486832.0,68623.0,6.81,1401.0,467309.0,68623.0
1989,SMF,Sacramento Intl,Sacramento,United States,-121.590778,38.695417,5.34,669.0,136822.0,25609.0,5.4,1320.0,138184.0,25609.0
1989,SNA,John Wayne Arpt Orange Co,Santa Ana,United States,-117.868222,33.675667,6.94,467.0,207148.0,29848.0,6.99,1320.0,208495.0,29848.0
1989,SRQ,Sarasota Bradenton Intl,Sarasota,United States,-82.554389,27.395444,4.63,423.0,53704.0,11597.0,5.11,405.0,59278.0,11597.0
1989,STL,Lambert St Louis Intl,St. Louis,United States,-90.370028,38.748697,7.91,878.0,1013712.0,128097.0,7.87,888.0,1007971.0,128097.0
1989,SUN,Friedman Mem,Hailey,United States,-114.296194,43.504444,16.47,67.0,247.0,15.0,16.47,58.0,247.0,15.0
1989,SUX,Sioux Gateway Col Bud Day Fld,Sioux City,United States,-96.384367,42.402603,5.96,570.0,14375.0,2411.0,4.53,600.0,10919.0,2411.0
1989,SYR,Syracuse Hancock Intl,Syracuse,United States,-76.106311,43.111187,8.91,425.0,241233.0,27089.0,8.43,1005.0,228322.0,27089.0
1989,TLH,Tallahassee Rgnl,Tallahassee,United States,-84.350333,30.396528,5.54,273.0,44913.0,8106.0,6.56,795.0,53168.0,8106.0
1989,TOL,Toledo,Toledo,United States,-83.807833,41.586806,7.48,256.0,25589.0,3422.0,6.57,243.0,22496.0,3422.0
1989,TPA,Tampa Intl,Tampa,United States,-82.53325,27.975472,7.87,669.0,430348.0,54705.0,7.74,1380.0,423470.0,54705.0
1989,TRI,Tri-Cities Regional Airport,BRISTOL,United States,-82.4074167,36.4752222,6.64,241.0,18422.0,2776.0,4.63,249.0,12853.0,2776.0
1989,TUL,Tulsa Intl,Tulsa,United States,-95.888111,36.198389,6.44,356.0,153071.0,23777.0,5.91,1320.0,140447.0,23777.0
1989,TUS,Tucson Intl,Tucson,United States,-110.941028,32.116083,4.86,1004.0,91947.0,18927.0,4.76,1320.0,90115.0,18927.0
1989,TVC,Cherry Capital Airport,Traverse City,United States,-85.582235,44.741445,15.12,340.0,3040.0,201.0,6.94,265.0,1394.0,201.0
1989,TVL,Lake Tahoe Airport,South Lake Tahoe,United States,-119.995278,38.893889,2.99,219.0,2893.0,969.0,3.77,221.0,3651.0,969.0
1989,TYS,Mc Ghee Tyson,Knoxville,United States,-83.994028,35.810972,4.78,349.0,43710.0,9139.0,3.65,270.0,33379.0,9139.0
1989,UCA,Union Station,Utica,United States,-75.223333,43.104167,7.67,300.0,7717.0,1006.0,5.99,300.0,6023.0,1006.0
1989,VPS,Eglin Afb,Valparaiso,United States,-86.5254,30.48325,1.6,176.0,1746.0,1091.0,1.44,180.0,1568.0,1091.0
1989,WRG,Wrangell Airport,Wrangell,United States,-132.37,56.4843,9.24,217.0,5893.0,638.0,9.37,217.0,5978.0,638.0
1989,YAK,Yakutat,Yakutat,United States,-139.3937,59.3012,8.86,298.0,5715.0,645.0,9.06,297.0,5843.0,645.0
1989,YKM,Yakima Air Terminal McAllister Field,Yakima,United States,-120.544,46.5682,1.45,36.0,340.0,234.0,2.03,245.0,474.0,234.0
1989,YUM,Yuma Mcas Yuma Intl,Yuma,United States,-114.60598,32.656578,3.94,282.0,6701.0,1700.0,4.28,293.0,7278.0,1700.0
1990,ABE,Lehigh Valley Intl,Allentown,United States,-75.440806,40.652083,2.68,374.0,16104.0,6010.0,4.95,404.0,29743.0,6010.0
1990,ABQ,Albuquerque International Sunport,Albuquerque,United States,-106.6091944,35.0402222,7.16,976.0,228201.0,31893.0,7.28,978.0,232097.0,31893.0
1990,ACY,Atlantic City Intl,Atlantic City,United States,-74.577167,39.457583,2.56,163.0,1945.0,760.0,4.73,168.0,3592.0,760.0
1990,AGS,Augusta Rgnl At Bush Fld,Bush Field,United States,-81.9645,33.369944,6.64,289.0,20824.0,3136.0,6.53,1375.0,20486.0,3136.0
1990,ALB,Albany Intl,Albany,United States,-73.801692,42.748267,5.32,595.0,72981.0,13713.0,5.9,605.0,80848.0,13713.0
1990,AMA,Rick Husband Amarillo Intl,Amarillo,United States,-101.705931,35.219369,6.16,388.0,39348.0,6391.0,5.48,269.0,35002.0,6391.0
1990,ANC,Ted Stevens Anchorage Intl,Anchorage,United States,-149.996361,61.174361,9.75,672.0,141329.0,14490.0,8.49,1380.0,123065.0,14490.0
1990,ATL,Hartsfield Jackson Atlanta Intl,Atlanta,United States,-84.428067,33.636719,9.54,514.0,2571230.0,269397.0,9.34,1439.0,2517339.0,269397.0
1990,ATW,Appleton,Appleton,United States,-88.507576,44.257526,-1.66,435.0,-441.0,266.0,2.3,441.0,611.0,266.0
1990,AUS,Austin Bergstrom Intl,Austin,United States,-97.669889,30.194528,4.77,467.0,135396.0,28397.0,5.18,488.0,147215.0,28397.0
1990,AVL,Asheville Regional Airport,Asheville,United States,-82.541806,35.436194,3.24,269.0,7508.0,2320.0,3.67,263.0,8521.0,2320.0
1990,AVP,Wilkes Barre Scranton Intl,Scranton,United States,-75.723403,41.338478,4.17,236.0,12952.0,3106.0,4.72,655.0,14657.0,3106.0
1990,AZO,Kalamazoo,Kalamazoo,United States,-85.552058,42.234875,1.04,301.0,3516.0,3387.0,0.35,291.0,1173.0,3387.0
1990,BDL,Bradley Intl,Windsor Locks,United States,-72.683222,41.938889,3.86,514.0,113977.0,29517.0,5.61,521.0,165587.0,29517.0
1990,BET,Bethel,Bethel,United States,-161.838,60.779778,6.7,221.0,3948.0,589.0,7.87,220.0,4633.0,589.0
1990,BFL,Meadows Fld,Bakersfield,United States,-119.05677,35.433598,5.67,360.0,9710.0,1713.0,4.63,346.0,7927.0,1713.0
1990,BGM,Greater Binghamton Edwin A Link Fld,Binghamton,United States,-75.979839,42.208689,2.02,292.0,4300.0,2131.0,2.5,305.0,5337.0,2131.0
1990,BGR,Bangor Intl,Bangor,United States,-68.828139,44.807444,7.65,405.0,18847.0,2463.0,5.66,375.0,13946.0,2463.0
1990,BHM,Birmingham Intl,Birmingham,United States,-86.75355,33.562942,5.31,584.0,96200.0,18127.0,5.23,572.0,94819.0,18127.0
1990,BIL,Billings Logan International Airport,Billings,United States,-108.537654,45.80921,4.04,497.0,21695.0,5367.0,2.93,1374.0,15718.0,5367.0
1990,BIS,Bismarck Municipal Airport,Bismarck,United States,-100.757931,46.775842,1.61,231.0,6212.0,3864.0,1.86,190.0,7203.0,3864.0
1990,BLI,Bellingham Intl,Bellingham,United States,-122.537528,48.792694,7.67,246.0,14592.0,1903.0,5.94,260.0,11303.0,1903.0
1990,BNA,Nashville Intl,Nashville,United States,-86.678194,36.124472,4.71,839.0,253451.0,53761.0,5.6,923.0,300873.0,53761.0
1990,BOI,Boise Air Terminal,Boise,United States,-116.222861,43.564361,4.41,311.0,28458.0,6454.0,4.98,301.0,32172.0,6454.0
1990,BOS,General Edward Lawrence Logan Intl,Boston,United States,-71.005181,42.364347,7.64,1438.0,718779.0,94092.0,8.29,545.0,780070.0,94092.0
1990,BTM,Bert Mooney Airport,Butte,United States,-112.497472,45.954806,5.81,192.0,4169.0,717.0,4.6,185.0,3296.0,717.0
1990,BTR,Baton Rouge Metro Ryan Fld,Baton Rouge,United States,-91.149639,30.533167,8.15,673.0,70312.0,8623.0,7.01,1383.0,60409.0,8623.0
1990,BTV,Burlington Intl,Burlington,United States,-73.153278,44.471861,5.37,437.0,37977.0,7076.0,5.77,422.0,40818.0,7076.0
1990,BUF,Buffalo Niagara Intl,Buffalo,United States,-78.732167,42.940525,6.35,495.0,164411.0,25890.0,6.0,470.0,155307.0,25890.0
1990,BUR,Bob Hope,Burbank,United States,-118.358667,34.200667,2.52,370.0,64725.0,25635.0,3.84,368.0,98536.0,25635.0
1990,BWI,Baltimore Washington Intl,Baltimore,United States,-76.668333,39.175361,4.58,322.0,319796.0,69848.0,6.0,458.0,419208.0,69848.0
1990,BZN,Gallatin Field,Bozeman,United States,-111.160151,45.777643,6.63,331.0,26232.0,3954.0,6.19,1417.0,24461.0,3954.0
1990,CAE,Columbia Metropolitan,Columbia,United States,-81.119528,33.938833,6.17,334.0,71038.0,11515.0,5.86,512.0,67524.0,11515.0
1990,CAK,Akron Canton Regional Airport,Akron,United States,-81.4421944,40.9160833,3.05,305.0,11462.0,3764.0,3.74,305.0,14061.0,3764.0
1990,CCR,Buchanan Field Airport,Concord,United States,-122.0568889,37.9896667,1.68,251.0,2186.0,1303.0,2.03,255.0,2639.0,1303.0
1990,CDV,Merle K Mudhole Smith,Cordova,United States,-145.477556,60.491778,4.93,252.0,3407.0,691.0,4.26,250.0,2941.0,691.0
1990,CHA,Lovell Fld,Chattanooga,United States,-85.203808,35.035278,4.31,259.0,21513.0,4988.0,3.57,247.0,17796.0,4988.0
1990,CHO,Charlottesville-Albemarle,Charlottesville VA,United States,-78.452861,38.138639,1.73,221.0,3219.0,1856.0,3.03,222.0,5631.0,1856.0
1990,CHS,Charleston Afb Intl,Charleston,United States,-80.040528,32.898647,4.11,353.0,56002.0,13622.0,4.96,1371.0,67631.0,13622.0
1990,CID,Cedar Rapids,Cedar Rapids,United States,-91.710806,41.884694,5.07,542.0,27097.0,5347.0,5.55,550.0,29679.0,5347.0
1990,CLE,Cleveland Hopkins Intl,Cleveland,United States,-81.849794,41.411689,6.23,789.0,432262.0,69408.0,6.38,787.0,442921.0,69408.0
1990,CLT,Charlotte Douglas Intl,Charlotte,United States,-80.943139,35.214,6.61,552.0,762903.0,115470.0,6.53,539.0,754081.0,115470.0
1990,CMH,Port Columbus Intl,Columbus,United States,-82.891889,39.997972,6.42,657.0,173876.0,27099.0,5.36,675.0,145159.0,27099.0
1990,CMI,Champaign,Champaign,United States,-88.278056,40.03925,-0.42,139.0,-453.0,1076.0,2.03,165.0,2187.0,1076.0
1990,COS,City Of Colorado Springs Muni,Colorado Springs,United States,-104.700778,38.805805,4.77,359.0,49590.0,10393.0,3.51,341.0,36445.0,10393.0
1990,CPR,Natrona Co Intl,Casper,United States,-106.464417,42.908,1.11,86.0,1199.0,1081.0,0.31,98.0,334.0,1081.0
1990,CRP,Corpus Christi Intl,Corpus Christi,United States,-97.501222,27.770361,8.86,341.0,57471.0,6483.0,6.92,328.0,44847.0,6483.0
1990,CRW,Yeager,Charleston,United States,-81.593189,38.373147,5.27,289.0,16768.0,3179.0,4.98,290.0,15840.0,3179.0
1990,CSG,Columbus Metropolitan Airport,Columbus,United States,-84.9388611,32.5163333,10.36,333.0,10761.0,1039.0,6.32,335.0,6566.0,1039.0
1990,CVG,Cincinnati Northern Kentucky Intl,Cincinnati,United States,-84.667822,39.048836,8.28,609.0,526635.0,63610.0,6.86,1438.0,436124.0,63610.0
1990,DAB,Daytona Beach Intl,Daytona Beach,United States,-81.058056,29.179917,6.2,673.0,45439.0,7324.0,5.85,694.0,42823.0,7324.0
1990,DAL,Dallas Love Fld,Dallas,United States,-96.851778,32.847111,8.87,333.0,328505.0,37053.0,9.13,334.0,338257.0,37053.0
1990,DAY,James M Cox Dayton Intl,Dayton,United States,-84.219375,39.902375,3.56,799.0,126030.0,35371.0,5.49,792.0,194269.0,35371.0
1990,DCA,Ronald Reagan Washington Natl,Washington,United States,-77.037722,38.852083,4.35,889.0,378142.0,86835.0,5.6,892.0,485986.0,86835.0
1990,DEN,Denver Intl,Denver,United States,-104.673178,39.861656,9.21,1141.0,1263132.0,137179.0,8.87,1265.0,1216591.0,137179.0
1990,DET,Coleman A Young Muni,Detroit,United States,-83.009861,42.409195,7.74,276.0,53316.0,6890.0,6.84,273.0,47120.0,6890.0
1990,DFW,Dallas Fort Worth Intl,Dallas-Fort Worth,United States,-97.037997,32.896828,10.51,798.0,2500626.0,237924.0,8.98,1438.0,2136911.0,237924.0
1990,DLH,Duluth Intl,Duluth,United States,-92.193649,46.842091,1.11,221.0,1935.0,1741.0,2.74,205.0,4778.0,1741.0
1990,DRO,Durango La Plata Co,Durango,United States,-107.75377,37.151516,7.67,177.0,7581.0,988.0,6.56,173.0,6480.0,988.0
1990,DSM,Des Moines Intl,Des Moines,United States,-93.663083,41.533972,5.27,372.0,53490.0,10148.0,4.66,369.0,47297.0,10148.0
1990,DTW,Detroit Metro Wayne Co,Detroit,United States,-83.353389,42.212444,5.95,770.0,715888.0,120331.0,6.14,780.0,738625.0,120331.0
1990,EFD,Ellington Fld,Houston,United States,-95.15875,29.607333,1.56,180.0,1138.0,730.0,3.21,120.0,2346.0,730.0
1990,EGE,Eagle Co Rgnl,Vail,United States,-106.917694,39.642556,18.35,152.0,2863.0,156.0,13.31,123.0,2076.0,156.0
1990,ELM,Elmira Corning Rgnl,Elmira,United States,-76.891611,42.159889,4.42,223.0,6775.0,1533.0,3.81,215.0,5840.0,1533.0
1990,ELP,El Paso Intl,El Paso,United States,-106.377583,31.80725,7.22,1004.0,192381.0,26664.0,6.9,1012.0,183954.0,26664.0
1990,ERI,Erie Intl Tom Ridge Fld,Erie,United States,-80.176217,42.082022,4.51,437.0,8648.0,1919.0,5.19,435.0,9951.0,1919.0
1990,EUG,Mahlon Sweet Fld,Eugene,United States,-123.211972,44.124583,4.09,272.0,13596.0,3327.0,4.4,274.0,14640.0,3327.0
1990,EVV,Evansville Regional,Evansville,United States,-87.532364,38.036997,1.57,158.0,3408.0,2173.0,1.81,338.0,3934.0,2173.0
1990,EWR,Newark Liberty Intl,Newark,United States,-74.168667,40.6925,7.45,849.0,878851.0,117938.0,9.01,864.0,1062573.0,117938.0
1990,EYW,Key West Intl,Key West,United States,-81.759556,24.556111,1.89,127.0,3983.0,2106.0,2.48,127.0,5232.0,2106.0
1990,FAI,Fairbanks Intl,Fairbanks,United States,-147.856267,64.815114,9.89,330.0,34545.0,3494.0,6.36,325.0,22213.0,3494.0
1990,FAR,Hector International Airport,Fargo,United States,-96.8157639,46.92065,0.98,313.0,2621.0,2688.0,2.15,364.0,5780.0,2688.0
1990,FAT,Fresno Yosemite Intl,Fresno,United States,-119.71814,36.776194,3.51,323.0,23298.0,6647.0,4.21,333.0,27999.0,6647.0
1990,FAY,Fayetteville Regional Grannis Field,Fayetteville,United States,-78.8803,34.9912,1.12,273.0,3367.0,2994.0,2.5,389.0,7485.0,2994.0
1990,FCA,Glacier Park Intl,Kalispell,United States,-114.256,48.310472,8.89,135.0,6368.0,716.0,6.07,133.0,4348.0,716.0
1990,FLG,Flagstaff Pulliam Airport,Flagstaff,United States,-111.6692392,35.140318,6.12,213.0,14491.0,2366.0,4.58,204.0,10828.0,2366.0
1990,FLL,Fort Lauderdale Hollywood Intl,Fort Lauderdale,United States,-80.15275,26.072583,6.86,583.0,272565.0,39704.0,7.07,584.0,280704.0,39704.0
1990,FNT,Bishop International,Flint,United States,-83.743629,42.965424,4.34,153.0,4691.0,1081.0,1.54,154.0,1669.0,1081.0
1990,FSD,Sioux Falls,Sioux Falls,United States,-96.741914,43.582014,5.04,385.0,30276.0,6011.0,6.0,1435.0,36062.0,6011.0
1990,FWA,Fort Wayne,Fort Wayne,United States,-85.195139,40.978472,2.8,840.0,11165.0,3982.0,2.56,856.0,10206.0,3982.0
1990,GCN,Grand Canyon National Park Airport,Grand Canyon,United States,-112.1469722,35.9523611,5.74,162.0,7776.0,1355.0,4.64,154.0,6281.0,1355.0
1990,GEG,Spokane Intl,Spokane,United States,-117.533833,47.619861,7.1,575.0,73252.0,10322.0,5.45,580.0,56206.0,10322.0
1990,GFK,Grand Forks Intl,Grand Forks,United States,-97.176111,47.949256,1.28,251.0,1621.0,1267.0,1.56,368.0,1977.0,1267.0
1990,GJT,Grand Junction Regional,Grand Junction,United States,-108.526735,39.122413,3.6,169.0,5175.0,1436.0,2.94,140.0,4221.0,1436.0
1990,GNV,Gainesville Rgnl,Gainesville,United States,-82.271778,29.690056,3.46,380.0,12825.0,3708.0,5.22,372.0,19358.0,3708.0
1990,GPT,Gulfport-Biloxi,Gulfport,United States,-89.070111,30.407278,-4.43,216.0,-4682.0,1057.0,0.16,228.0,166.0,1057.0
1990,GRB,Austin Straubel Intl,Green Bay,United States,-88.129589,44.485072,0.43,183.0,1307.0,3067.0,0.28,182.0,866.0,3067.0
1990,GRR,Gerald R Ford Intl,Grand Rapids,United States,-85.522806,42.880833,4.5,499.0,48365.0,10740.0,3.35,502.0,35944.0,10740.0
1990,GSO,Piedmont Triad,Greensboro,United States,-79.937306,36.09775,5.71,406.0,113788.0,19917.0,5.02,395.0,100054.0,19917.0
1990,GSP,Greenville-Spartanburg International,Greenville,United States,-82.218889,34.895556,4.06,351.0,42538.0,10476.0,4.23,1233.0,44268.0,10476.0
1990,GST,Gustavus Airport,Gustavus,United States,-135.707,58.4253,1.51,51.0,130.0,86.0,1.28,35.0,110.0,86.0
1990,GTF,Great Falls Intl,Great Falls,United States,-111.370689,47.482,1.53,346.0,4952.0,3234.0,1.84,343.0,5950.0,3234.0
1990,GUC,Gunnison - Crested Butte,Gunnison,United States,-106.933056,38.533889,19.33,1112.0,6726.0,348.0,10.08,1108.0,3508.0,348.0
1990,HDN,Yampa Valley,Hayden,United States,-107.21766,40.481181,18.19,1339.0,10711.0,589.0,17.48,1357.0,10294.0,589.0
1990,HLN,Helena Rgnl,Helena,United States,-111.98275,46.606806,6.51,192.0,5983.0,919.0,5.42,192.0,4979.0,919.0
1990,HNL,Honolulu Intl,Honolulu,United States,-157.922428,21.318681,3.42,1291.0,60760.0,17788.0,7.74,1435.0,137643.0,17788.0
1990,HOU,William P Hobby,Houston,United States,-95.278889,29.645419,6.22,761.0,363889.0,58534.0,8.37,734.0,489813.0,58534.0
1990,HPN,Westchester Co,White Plains,United States,-73.707575,41.066959,3.89,361.0,10204.0,2625.0,4.6,365.0,12088.0,2625.0
1990,HRL,Valley Intl,Harlingen,United States,-97.654389,26.2285,4.29,895.0,28732.0,6697.0,5.08,900.0,34009.0,6697.0
1990,HSV,Huntsville International Airport-Carl T Jones Field,Huntsville,United States,-86.7750556,34.6371944,3.17,312.0,26381.0,8311.0,3.43,899.0,28492.0,8311.0
1990,HTS,Tri State Milton J Ferguson Field,Huntington,United States,-82.558,38.3667,5.74,394.0,10472.0,1824.0,5.37,358.0,9787.0,1824.0
